[
  {
    "name": "Resto",
    "id": 494936043,
    "lat": 36.747234,
    "lon": 3.1914692,
    "address": {
      "amenity": "Resto",
      "road": "Avenue Ali Khodja",
      "suburb": "Mouhous",
      "village": "Kaidi",
      "town": "Bordj El Kiffan ⵓⵣⵎⵉⵔ ⵏ ⴰⵎⴰⵏ برج الكيفان",
      "county": "Dar el-Beïda",
      "state": "Alger",
      "ISO3166-2-lvl4": "DZ-16",
      "postcode": "16411",
      "country": "Algérie ⵍⵣⵣⴰⵢⴻⵔ الجزائر",
      "country_code": "dz"
    }
  },
  {
    "name": "Restaurant les Trois Frères",
    "id": 539149978,
    "lat": 33.7947651,
    "lon": 2.8630423,
    "address": {
      "amenity": "Restaurant les Trois Frères",
      "road": "Avenue de l'Indépendance",
      "city": "الأغواط",
      "county": "Daïra Laghouat",
      "state": "Laghouat",
      "ISO3166-2-lvl4": "DZ-03",
      "postcode": "03002",
      "country": "Algérie ⵍⵣⵣⴰⵢⴻⵔ الجزائر",
      "country_code": "dz"
    }
  },
  {
    "name": "غريال",
    "id": 539635567,
    "lat": 36.7557254,
    "lon": 3.0270501,
    "address": {
      "amenity": "غريال",
      "road": "Chemin Al Bakri Abdelkader",
      "neighbourhood": "Haut Hydra",
      "hamlet": "Résidence Petit Hydra",
      "town": "Hydra ⵃⵉⴷⵔⴰ حيدرة",
      "county": "Bir Mourad Raïs",
      "state": "Alger",
      "ISO3166-2-lvl4": "DZ-16",
      "postcode": "16070",
      "country": "Algérie ⵍⵣⵣⴰⵢⴻⵔ الجزائر",
      "country_code": "dz"
    }
  },
  {
    "name": "little sweet home",
    "id": 539638374,
    "lat": 36.7576787,
    "lon": 3.0227423,
    "address": {
      "amenity": "little sweet home",
      "road": "Cooperative Des Medecins (Djemaa Khider Mohamed)",
      "town": "Ben Aknoun ⴱⴻⵏ ⴰⴽⵏⵓⵏ بن عكنون",
      "county": "Bouzaréah",
      "state": "Alger",
      "ISO3166-2-lvl4": "DZ-16",
      "postcode": "16070",
      "country": "Algérie ⵍⵣⵣⴰⵢⴻⵔ الجزائر",
      "country_code": "dz"
    }
  },
  {
    "name": "Restaurant Benzoubir",
    "id": 552387168,
    "lat": 33.7102498,
    "lon": 2.919206,
    "address": {
      "road": "Trans-Sahara",
      "city": "Bennasser Benchohra ⴱⴻⵏⵏⴰⵚⴻⵔ ⴱⴻⵏ ⵛⵓⵀⵔⴰ بن ناصر بن شهرة",
      "county": "Daïra Ksar El Hirane",
      "state": "Laghouat",
      "ISO3166-2-lvl4": "DZ-03",
      "country": "Algérie ⵍⵣⵣⴰⵢⴻⵔ الجزائر",
      "country_code": "dz"
    }
  },
  {
    "name": "La villa d'Este",
    "id": 692711722,
    "lat": 36.8113576,
    "lon": 3.0297683,
    "address": {
      "amenity": "La villa d'Este",
      "house_number": "12",
      "road": "شارع سعيد تواتي",
      "neighbourhood": "Sidi El Kebir",
      "town": "Bologhine ⴱⵓⵍⵓⵖⵉⵏ بولوغين",
      "county": "Daïra Bab El Oued",
      "state": "Alger",
      "ISO3166-2-lvl4": "DZ-16",
      "postcode": "16650",
      "country": "Algérie ⵍⵣⵣⴰⵢⴻⵔ الجزائر",
      "country_code": "dz"
    }
  },
  {
    "name": "Chez Madelaine",
    "id": 692711724,
    "lat": 36.8114263,
    "lon": 3.0298541,
    "address": {
      "amenity": "Chez Madelaine",
      "house_number": "12",
      "road": "شارع سعيد تواتي",
      "neighbourhood": "Sidi El Kebir",
      "town": "Bologhine ⴱⵓⵍⵓⵖⵉⵏ بولوغين",
      "county": "Daïra Bab El Oued",
      "state": "Alger",
      "ISO3166-2-lvl4": "DZ-16",
      "postcode": "16650",
      "country": "Algérie ⵍⵣⵣⴰⵢⴻⵔ الجزائر",
      "country_code": "dz"
    }
  },
  {
    "name": "Danbech",
    "id": 885948382,
    "lat": 36.7404263,
    "lon": 3.0398029,
    "address": {
      "amenity": "Danbech",
      "road": "طريق سيدي يحيى",
      "suburb": "Centre Ville Hydra",
      "town": "Bir Mourad Raïs ⴱⵉⵔ ⵎⵓⵔⴰⴷ ⵔⴰⵢⵙ بئر مراد رايس",
      "county": "Bir Mourad Raïs",
      "state": "Alger",
      "ISO3166-2-lvl4": "DZ-16",
      "postcode": "16035",
      "country": "Algérie ⵍⵣⵣⴰⵢⴻⵔ الجزائر",
      "country_code": "dz"
    }
  },
  {
    "name": "Resto",
    "id": 991956267,
    "lat": 36.7431775,
    "lon": 3.0443475,
    "address": {
      "amenity": "Resto",
      "road": "Rue Abou Nouas",
      "suburb": "Centre Ville Hydra",
      "town": "Hydra ⵃⵉⴷⵔⴰ حيدرة",
      "county": "Bir Mourad Raïs",
      "state": "Alger",
      "ISO3166-2-lvl4": "DZ-16",
      "postcode": "16035",
      "country": "Algérie ⵍⵣⵣⴰⵢⴻⵔ الجزائر",
      "country_code": "dz"
    }
  },
  {
    "name": "Domino",
    "id": 991956472,
    "lat": 36.7404018,
    "lon": 3.0471236,
    "address": {
      "amenity": "Domino",
      "road": "Rue de l'Oasis",
      "suburb": "Centre Ville Hydra",
      "town": "Hydra ⵃⵉⴷⵔⴰ حيدرة",
      "county": "Bir Mourad Raïs",
      "state": "Alger",
      "ISO3166-2-lvl4": "DZ-16",
      "postcode": "16016",
      "country": "Algérie ⵍⵣⵣⴰⵢⴻⵔ الجزائر",
      "country_code": "dz"
    }
  },
  {
    "name": "Woodpecker",
    "id": 991959004,
    "lat": 36.7452241,
    "lon": 3.0457483,
    "address": {
      "amenity": "Woodpecker",
      "road": "شارع إيكزيوم",
      "suburb": "Centre Ville Hydra",
      "town": "Hydra ⵃⵉⴷⵔⴰ حيدرة",
      "county": "Bir Mourad Raïs",
      "state": "Alger",
      "ISO3166-2-lvl4": "DZ-16",
      "postcode": "16016",
      "country": "Algérie ⵍⵣⵣⴰⵢⴻⵔ الجزائر",
      "country_code": "dz"
    }
  },
  {
    "id": 991959250,
    "lat": 36.7450349,
    "lon": 3.0458207,
    "address": {
      "amenity": "Pizzeria venisia",
      "road": "شارع تيمقاد",
      "suburb": "Centre Ville Hydra",
      "town": "Hydra ⵃⵉⴷⵔⴰ حيدرة",
      "county": "Bir Mourad Raïs",
      "state": "Alger",
      "ISO3166-2-lvl4": "DZ-16",
      "postcode": "16016",
      "country": "Algérie ⵍⵣⵣⴰⵢⴻⵔ الجزائر",
      "country_code": "dz"
    }
  },
  {
    "name": "Restaurant Traras",
    "id": 995917555,
    "lat": 35.0762342,
    "lon": -1.7846623,
    "address": {
      "amenity": "Restaurant Traras",
      "road": "Dar-Bentata",
      "village": "Dar Bentata",
      "city": "Dar Yaghmouracene ⴷⴰⵔ ⵢⴰⵖⵎⵓⵔⴰⵙⴻⵏ دار يغمراسن",
      "county": "Daïra Ghazaouet",
      "state": "Tlemcen ⵜⵍⴻⵎⵙⴻⵏ تلمسان",
      "ISO3166-2-lvl4": "DZ-13",
      "country": "Algérie ⵍⵣⵣⴰⵢⴻⵔ الجزائر",
      "country_code": "dz"
    }
  },
  {
    "name": "Pizzeria Messina",
    "id": 1083635248,
    "lat": 36.7449515,
    "lon": 3.0284274,
    "address": {
      "amenity": "Pizzeria Messina",
      "road": "Avenue Larbi Allik",
      "neighbourhood": "Paradou",
      "hamlet": "Résidence Petit Hydra",
      "town": "Hydra ⵃⵉⴷⵔⴰ حيدرة",
      "county": "Bir Mourad Raïs",
      "state": "Alger",
      "ISO3166-2-lvl4": "DZ-16",
      "postcode": "16405",
      "country": "Algérie ⵍⵣⵣⴰⵢⴻⵔ الجزائر",
      "country_code": "dz"
    }
  },
  {
    "name": "Sabbah",
    "id": 1087031021,
    "lat": 36.7348692,
    "lon": 3.0637877,
    "address": {
      "amenity": "Sabbah",
      "house_number": "7",
      "road": "Route des Anassers",
      "suburb": "Jolie Vue",
      "city": "Kouba ⵍⵇⵓⴱⴱⴰ القبة",
      "county": "Hussein Dey",
      "state": "Alger",
      "ISO3166-2-lvl4": "DZ-16",
      "postcode": "16408",
      "country": "Algérie ⵍⵣⵣⴰⵢⴻⵔ الجزائر",
      "country_code": "dz"
    }
  },
  {
    "name": "Au Bon Gibier",
    "id": 1106799703,
    "lat": 36.7425183,
    "lon": 3.0736325,
    "address": {
      "amenity": "Au Bon Gibier",
      "road": "Rue de Tihert",
      "town": "El Madania ⵍⵎⴰⴷⴰⵏⵢⴰ المدنية",
      "county": "Daïra Sidi M'Hamed",
      "state": "Alger",
      "ISO3166-2-lvl4": "DZ-16",
      "postcode": "16015",
      "country": "Algérie ⵍⵣⵣⴰⵢⴻⵔ الجزائر",
      "country_code": "dz"
    }
  },
  {
    "name": "El Arika",
    "id": 1111448389,
    "lat": 36.7414444,
    "lon": 3.0759388,
    "address": {
      "amenity": "El Arika",
      "road": "Rue de Tihert",
      "town": "El Madania ⵍⵎⴰⴷⴰⵏⵢⴰ المدنية",
      "county": "Daïra Sidi M'Hamed",
      "state": "Alger",
      "ISO3166-2-lvl4": "DZ-16",
      "postcode": "16015",
      "country": "Algérie ⵍⵣⵣⴰⵢⴻⵔ الجزائر",
      "country_code": "dz"
    }
  },
  {
    "name": "Piano Bar",
    "id": 1111448390,
    "lat": 36.7414874,
    "lon": 3.0755632,
    "address": {
      "amenity": "Piano Bar",
      "road": "Rue de Tihert",
      "town": "El Madania ⵍⵎⴰⴷⴰⵏⵢⴰ المدنية",
      "county": "Daïra Sidi M'Hamed",
      "state": "Alger",
      "ISO3166-2-lvl4": "DZ-16",
      "postcode": "16015",
      "country": "Algérie ⵍⵣⵣⴰⵢⴻⵔ الجزائر",
      "country_code": "dz"
    }
  },
  {
    "name": "Le Tantra",
    "id": 1111448391,
    "lat": 36.7415922,
    "lon": 3.0736508,
    "address": {
      "amenity": "Le Tantra",
      "road": "Boulevard Oulmane Khelifa",
      "town": "El Madania ⵍⵎⴰⴷⴰⵏⵢⴰ المدنية",
      "county": "Daïra Sidi M'Hamed",
      "state": "Alger",
      "ISO3166-2-lvl4": "DZ-16",
      "postcode": "16015",
      "country": "Algérie ⵍⵣⵣⴰⵢⴻⵔ الجزائر",
      "country_code": "dz"
    }
  },
  {
    "name": "Grill Room",
    "id": 1111448392,
    "lat": 36.7413842,
    "lon": 3.076089,
    "address": {
      "amenity": "Grill Room",
      "road": "Rue de Tihert",
      "town": "El Madania ⵍⵎⴰⴷⴰⵏⵢⴰ المدنية",
      "county": "Daïra Sidi M'Hamed",
      "state": "Alger",
      "ISO3166-2-lvl4": "DZ-16",
      "postcode": "16015",
      "country": "Algérie ⵍⵣⵣⴰⵢⴻⵔ الجزائر",
      "country_code": "dz"
    }
  },
  {
    "name": "بيتزا فن",
    "id": 1115180432,
    "lat": 36.7274943,
    "lon": 3.0651515,
    "address": {
      "amenity": "بيتزا فن",
      "road": "Vers les Annassers",
      "neighbourhood": "Ain Soltane",
      "suburb": "Jolie Vue",
      "city": "Kouba ⵍⵇⵓⴱⴱⴰ القبة",
      "county": "Hussein Dey",
      "state": "Alger",
      "ISO3166-2-lvl4": "DZ-16",
      "postcode": "16153",
      "country": "Algérie ⵍⵣⵣⴰⵢⴻⵔ الجزائر",
      "country_code": "dz"
    }
  },
  {
    "name": "Chippie Pizza",
    "id": 1115180439,
    "lat": 36.7273846,
    "lon": 3.06515,
    "address": {
      "amenity": "Chippie Pizza",
      "road": "Vers les Annassers",
      "neighbourhood": "Ain Soltane",
      "suburb": "Jolie Vue",
      "city": "Kouba ⵍⵇⵓⴱⴱⴰ القبة",
      "county": "Hussein Dey",
      "state": "Alger",
      "ISO3166-2-lvl4": "DZ-16",
      "postcode": "16153",
      "country": "Algérie ⵍⵣⵣⴰⵢⴻⵔ الجزائر",
      "country_code": "dz"
    }
  },
  {
    "name": "Retaurant de l'hôtel",
    "id": 1154360342,
    "lat": 34.8670584,
    "lon": -1.3169643,
    "address": {
      "amenity": "Retaurant de l'hôtel",
      "road": "Rue Ben Said Boumediene",
      "neighbourhood": "Faubourg Bel-Air",
      "suburb": "Boudghene",
      "city": "Tlemcen",
      "county": "Daïra Tlemcen",
      "state": "Tlemcen ⵜⵍⴻⵎⵙⴻⵏ تلمسان",
      "ISO3166-2-lvl4": "DZ-13",
      "postcode": "13000",
      "country": "Algérie ⵍⵣⵣⴰⵢⴻⵔ الجزائر",
      "country_code": "dz"
    }
  },
  {
    "name": "Equinox",
    "id": 1161105713,
    "lat": 34.8754306,
    "lon": -1.3246791,
    "address": {
      "amenity": "Equinox",
      "road": "Boulevard Aïn Sbaa Ali",
      "neighbourhood": "Faubourg Bel-Air",
      "suburb": "Boudghene",
      "city": "Tlemcen",
      "county": "Daïra Tlemcen",
      "state": "Tlemcen ⵜⵍⴻⵎⵙⴻⵏ تلمسان",
      "ISO3166-2-lvl4": "DZ-13",
      "postcode": "13000",
      "country": "Algérie ⵍⵣⵣⴰⵢⴻⵔ الجزائر",
      "country_code": "dz"
    }
  },
  {
    "name": "Restaurant Sirene Bleu",
    "id": 1306033260,
    "lat": 36.6629354,
    "lon": 5.1768067,
    "address": {
      "amenity": "Restaurant Sirene Bleu",
      "road": "RN 9",
      "quarter": "Cité LSP Louiba-Ouaar",
      "hamlet": "Tusal",
      "village": "Bakkaru",
      "town": "Tichy",
      "county": "Daïra Tichy",
      "state": "Béjaïa",
      "ISO3166-2-lvl4": "DZ-06",
      "postcode": "06023",
      "country": "Algérie ⵍⵣⵣⴰⵢⴻⵔ الجزائر",
      "country_code": "dz"
    }
  },
  {
    "name": "Autre part",
    "id": 1337246330,
    "lat": 36.7403191,
    "lon": 3.0396131,
    "address": {
      "amenity": "Autre part",
      "road": "Boulevard Benyoucef Benkhedda (Chemin Sidi Yahia)",
      "suburb": "Said Hamdine",
      "town": "Bir Mourad Raïs ⴱⵉⵔ ⵎⵓⵔⴰⴷ ⵔⴰⵢⵙ بئر مراد رايس",
      "county": "Bir Mourad Raïs",
      "state": "Alger",
      "ISO3166-2-lvl4": "DZ-16",
      "postcode": "16405",
      "country": "Algérie ⵍⵣⵣⴰⵢⴻⵔ الجزائر",
      "country_code": "dz"
    }
  },
  {
    "name": "La Plaza",
    "id": 1337246333,
    "lat": 36.7403907,
    "lon": 3.0397297,
    "address": {
      "amenity": "La Plaza",
      "road": "Boulevard Benyoucef Benkhedda (Chemin Sidi Yahia)",
      "suburb": "Said Hamdine",
      "town": "Bir Mourad Raïs ⴱⵉⵔ ⵎⵓⵔⴰⴷ ⵔⴰⵢⵙ بئر مراد رايس",
      "county": "Bir Mourad Raïs",
      "state": "Alger",
      "ISO3166-2-lvl4": "DZ-16",
      "postcode": "16405",
      "country": "Algérie ⵍⵣⵣⴰⵢⴻⵔ الجزائر",
      "country_code": "dz"
    }
  },
  {
    "name": "تروكت",
    "id": 1337246347,
    "lat": 36.7387701,
    "lon": 3.0334023,
    "address": {
      "amenity": "تروكت",
      "road": "Boulevard Benyoucef Benkhedda (Chemin Sidi Yahia)",
      "suburb": "Said Hamdine",
      "town": "Hydra ⵃⵉⴷⵔⴰ حيدرة",
      "county": "Bir Mourad Raïs",
      "state": "Alger",
      "ISO3166-2-lvl4": "DZ-16",
      "postcode": "16405",
      "country": "Algérie ⵍⵣⵣⴰⵢⴻⵔ الجزائر",
      "country_code": "dz"
    }
  },
  {
    "name": "Coffee shop",
    "id": 1337246368,
    "lat": 36.7402704,
    "lon": 3.0395269,
    "address": {
      "amenity": "Coffee shop",
      "road": "Boulevard Benyoucef Benkhedda (Chemin Sidi Yahia)",
      "suburb": "Said Hamdine",
      "town": "Bir Mourad Raïs ⴱⵉⵔ ⵎⵓⵔⴰⴷ ⵔⴰⵢⵙ بئر مراد رايس",
      "county": "Bir Mourad Raïs",
      "state": "Alger",
      "ISO3166-2-lvl4": "DZ-16",
      "postcode": "16405",
      "country": "Algérie ⵍⵣⵣⴰⵢⴻⵔ الجزائر",
      "country_code": "dz"
    }
  },
  {
    "name": "Resto",
    "id": 1666766450,
    "lat": 36.7280366,
    "lon": 2.8392822,
    "address": {
      "amenity": "Resto",
      "road": "CW 13",
      "village": "Village touristique du Mazafran",
      "town": "Zéralda",
      "county": "Zeralda ⵣⵉⵔⴰⵍⴷⴰ زرالدة",
      "state": "Alger",
      "ISO3166-2-lvl4": "DZ-16",
      "postcode": "16063",
      "country": "Algérie ⵍⵣⵣⴰⵢⴻⵔ الجزائر",
      "country_code": "dz"
    }
  },
  {
    "name": "Resto",
    "id": 1668451732,
    "lat": 36.7908427,
    "lon": 3.0516477,
    "address": {
      "amenity": "Resto",
      "road": "Rue Dekkar شارع داكار",
      "neighbourhood": "3 Horloges",
      "hamlet": "Droudj el Rounda",
      "town": "Bab El Oued ⴱⴰⴱ ⵍⵡⴻⴷ باب الوادي",
      "county": "Daïra Bab El Oued",
      "state": "Alger",
      "ISO3166-2-lvl4": "DZ-16",
      "postcode": "16131",
      "country": "Algérie ⵍⵣⵣⴰⵢⴻⵔ الجزائر",
      "country_code": "dz"
    }
  },
  {
    "name": "Hippopotamus",
    "id": 1669712315,
    "lat": 36.7620273,
    "lon": 3.0242761,
    "address": {
      "amenity": "Hippopotamus",
      "road": "نهج 11 ديسمبر 1960",
      "town": "El Biar ⵍⴻⴱⵢⴰⵔ الأبيار",
      "county": "Bouzaréah",
      "state": "Alger",
      "ISO3166-2-lvl4": "DZ-16",
      "postcode": "16030",
      "country": "Algérie ⵍⵣⵣⴰⵢⴻⵔ الجزائر",
      "country_code": "dz"
    }
  },
  {
    "name": "Resto Ambiance Ilyes",
    "id": 1686937757,
    "lat": 34.8826879,
    "lon": -1.3046639,
    "address": {
      "amenity": "Resto Ambiance Ilyes",
      "road": "Avenue 1er Novembre 1954",
      "residential": "Médina",
      "suburb": "Centre Ville Historique",
      "city": "Tlemcen",
      "county": "Daïra Tlemcen",
      "state": "Tlemcen ⵜⵍⴻⵎⵙⴻⵏ تلمسان",
      "ISO3166-2-lvl4": "DZ-13",
      "postcode": "13000",
      "country": "Algérie ⵍⵣⵣⴰⵢⴻⵔ الجزائر",
      "country_code": "dz"
    }
  },
  {
    "name": "Bou Haroun Fish",
    "id": 1693367713,
    "lat": 36.6252205,
    "lon": 2.6553688,
    "address": {
      "amenity": "Bou Haroun Fish",
      "road": "RN 11",
      "hamlet": "Saïdia",
      "village": "Haouch Ben Said",
      "county": "Daïra Bou Ismaïl",
      "state": "Tipaza",
      "ISO3166-2-lvl4": "DZ-42",
      "postcode": "42009",
      "country": "Algérie ⵍⵣⵣⴰⵢⴻⵔ الجزائر",
      "country_code": "dz"
    }
  },
  {
    "name": "Djurdjura",
    "id": 1700245367,
    "lat": 36.7885563,
    "lon": 3.2379853,
    "address": {
      "amenity": "Djurdjura",
      "road": "Rue Commandant Si Lakhdar",
      "suburb": "Café Chergui",
      "village": "Cité 252 log",
      "town": "Bordj El Bahri ⴱⴻⵔⴵ ⵍⴱⴻⵃⵔⵉ برج البحري",
      "county": "Dar el-Beïda",
      "state": "Alger",
      "ISO3166-2-lvl4": "DZ-16",
      "postcode": "16046",
      "country": "Algérie ⵍⵣⵣⴰⵢⴻⵔ الجزائر",
      "country_code": "dz"
    }
  },
  {
    "name": "Mahraja",
    "id": 1723402274,
    "lat": 36.7540173,
    "lon": 2.9946189,
    "address": {
      "amenity": "Mahraja",
      "road": "Route Aîn Allah",
      "suburb": "Aïn Allah",
      "town": "Dély Brahim ⴷⴻⵍⵉ ⴱⵔⴰⵀⵉⵎ دالي إبراھيم",
      "county": "Daïra de Chéraga",
      "state": "Alger",
      "ISO3166-2-lvl4": "DZ-16",
      "postcode": "16047",
      "country": "Algérie ⵍⵣⵣⴰⵢⴻⵔ الجزائر",
      "country_code": "dz"
    }
  },
  {
    "name": "Restaurant Le saveurs spécialiste poisson",
    "id": 1723917196,
    "lat": 36.8028597,
    "lon": 2.8972466,
    "address": {
      "amenity": "Restaurant Le saveurs spécialiste poisson",
      "road": "Rue Gacem Mohamed",
      "quarter": "El Djamila",
      "town": "Aïn Benian ⵉⵏ ⴱⴻⵏⵢⴰⵏ عين البنيان",
      "county": "Daïra de Chéraga",
      "state": "Alger",
      "ISO3166-2-lvl4": "DZ-16",
      "postcode": "16202",
      "country": "Algérie ⵍⵣⵣⴰⵢⴻⵔ الجزائر",
      "country_code": "dz"
    }
  },
  {
    "name": "Cheraga Family Chicken",
    "id": 1733905565,
    "lat": 36.4730648,
    "lon": 2.8247058,
    "address": {
      "amenity": "Cheraga Family Chicken",
      "road": "Boulevard Larbi Tebessi",
      "neighbourhood": "Bab Essebt",
      "suburb": "Bab Ezzaouia",
      "city": "Blida ⵍⴻⴱⵍⵉⴸⴰ البليدة",
      "county": "Daïra Blida",
      "state": "Blida",
      "ISO3166-2-lvl4": "DZ-09",
      "postcode": "09000",
      "country": "Algérie ⵍⵣⵣⴰⵢⴻⵔ الجزائر",
      "country_code": "dz"
    }
  },
  {
    "name": "مطعم حمري",
    "id": 1817567611,
    "lat": 36.1504588,
    "lon": 3.6892065,
    "address": {
      "amenity": "مطعم حمري",
      "road": "RN 8",
      "town": "Sour El Ghozlane",
      "county": "Daïra Sour El Ghozlane",
      "state": "Bouira",
      "ISO3166-2-lvl4": "DZ-10",
      "postcode": "10004",
      "country": "Algérie ⵍⵣⵣⴰⵢⴻⵔ الجزائر",
      "country_code": "dz"
    }
  },
  {
    "name": "kadou",
    "id": 1824406498,
    "lat": 36.1795365,
    "lon": 3.7453396,
    "address": {
      "amenity": "kadou",
      "road": "RN 8B",
      "farm": "Complexe avicole Groupe Bali",
      "village": "El Hachimia VSA",
      "town": "Sour El Ghozlane",
      "county": "Daïra Sour El Ghozlane",
      "state": "Bouira",
      "ISO3166-2-lvl4": "DZ-10",
      "country": "Algérie ⵍⵣⵣⴰⵢⴻⵔ الجزائر",
      "country_code": "dz"
    }
  },
  {
    "name": "Resto",
    "id": 1879353675,
    "lat": 36.7535893,
    "lon": 2.8865985,
    "address": {
      "amenity": "Resto",
      "road": "Boulevard Gaci Ahmed El Madou Amar",
      "village": "El Bridja",
      "town": "Staoueli ⵙⵜⴰⵡⴰⵍⵉ سطاوالي",
      "county": "Zeralda ⵣⵉⵔⴰⵍⴷⴰ زرالدة",
      "state": "Alger",
      "ISO3166-2-lvl4": "DZ-16",
      "postcode": "16062",
      "country": "Algérie ⵍⵣⵣⴰⵢⴻⵔ الجزائر",
      "country_code": "dz"
    }
  },
  {
    "name": "Resto",
    "id": 1879353685,
    "lat": 36.7535184,
    "lon": 2.8866307,
    "address": {
      "amenity": "Resto",
      "road": "Boulevard Gaci Ahmed El Madou Amar",
      "village": "El Bridja",
      "town": "Staoueli ⵙⵜⴰⵡⴰⵍⵉ سطاوالي",
      "county": "Zeralda ⵣⵉⵔⴰⵍⴷⴰ زرالدة",
      "state": "Alger",
      "ISO3166-2-lvl4": "DZ-16",
      "postcode": "16062",
      "country": "Algérie ⵍⵣⵣⴰⵢⴻⵔ الجزائر",
      "country_code": "dz"
    }
  },
  {
    "name": "Resto",
    "id": 1879353688,
    "lat": 36.7534303,
    "lon": 2.8870679,
    "address": {
      "amenity": "Resto",
      "road": "Boulevard Gaci Ahmed El Madou Amar",
      "village": "El Bridja",
      "town": "Staoueli ⵙⵜⴰⵡⴰⵍⵉ سطاوالي",
      "county": "Zeralda ⵣⵉⵔⴰⵍⴷⴰ زرالدة",
      "state": "Alger",
      "ISO3166-2-lvl4": "DZ-16",
      "postcode": "16062",
      "country": "Algérie ⵍⵣⵣⴰⵢⴻⵔ الجزائر",
      "country_code": "dz"
    }
  },
  {
    "name": "Névé Glace",
    "id": 1879353692,
    "lat": 36.7535893,
    "lon": 2.8868024,
    "address": {
      "amenity": "Névé Glace",
      "road": "Boulevard Gaci Ahmed El Madou Amar",
      "village": "El Bridja",
      "town": "Staoueli ⵙⵜⴰⵡⴰⵍⵉ سطاوالي",
      "county": "Zeralda ⵣⵉⵔⴰⵍⴷⴰ زرالدة",
      "state": "Alger",
      "ISO3166-2-lvl4": "DZ-16",
      "postcode": "16062",
      "country": "Algérie ⵍⵣⵣⴰⵢⴻⵔ الجزائر",
      "country_code": "dz"
    }
  },
  {
    "name": "Resto",
    "id": 1879353697,
    "lat": 36.7533809,
    "lon": 2.8868828,
    "address": {
      "amenity": "Resto",
      "road": "Rue Mellal Abdelkader",
      "village": "El Bridja",
      "town": "Staoueli ⵙⵜⴰⵡⴰⵍⵉ سطاوالي",
      "county": "Zeralda ⵣⵉⵔⴰⵍⴷⴰ زرالدة",
      "state": "Alger",
      "ISO3166-2-lvl4": "DZ-16",
      "postcode": "16062",
      "country": "Algérie ⵍⵣⵣⴰⵢⴻⵔ الجزائر",
      "country_code": "dz"
    }
  },
  {
    "name": "Resto",
    "id": 1886603391,
    "lat": 36.7547604,
    "lon": 2.8871323,
    "address": {
      "amenity": "Resto",
      "road": "Rue Mellal Abdelkader",
      "village": "El Bridja",
      "town": "Staoueli ⵙⵜⴰⵡⴰⵍⵉ سطاوالي",
      "county": "Zeralda ⵣⵉⵔⴰⵍⴷⴰ زرالدة",
      "state": "Alger",
      "ISO3166-2-lvl4": "DZ-16",
      "postcode": "16062",
      "country": "Algérie ⵍⵣⵣⴰⵢⴻⵔ الجزائر",
      "country_code": "dz"
    }
  },
  {
    "name": "La piazza",
    "id": 1886603410,
    "lat": 36.7549473,
    "lon": 2.8869097,
    "address": {
      "amenity": "La piazza",
      "road": "Rue des Frères Chikirou",
      "village": "El Bridja",
      "town": "Staoueli ⵙⵜⴰⵡⴰⵍⵉ سطاوالي",
      "county": "Zeralda ⵣⵉⵔⴰⵍⴷⴰ زرالدة",
      "state": "Alger",
      "ISO3166-2-lvl4": "DZ-16",
      "postcode": "16062",
      "country": "Algérie ⵍⵣⵣⴰⵢⴻⵔ الجزائر",
      "country_code": "dz"
    }
  },
  {
    "name": "Resto",
    "id": 1952645839,
    "lat": 35.0695356,
    "lon": -1.4299651,
    "address": {
      "amenity": "Resto",
      "road": "RN 22",
      "village": "Sidi Ahmed",
      "town": "Remchi ⵔⵔⴻⵎⵛⵉ الرمشي",
      "county": "Daïra Remchi",
      "state": "Tlemcen ⵜⵍⴻⵎⵙⴻⵏ تلمسان",
      "ISO3166-2-lvl4": "DZ-13",
      "country": "Algérie ⵍⵣⵣⴰⵢⴻⵔ الجزائر",
      "country_code": "dz"
    }
  },
  {
    "name": "Restaurant Casbah",
    "id": 1964692364,
    "lat": 36.4758529,
    "lon": 2.8300766,
    "address": {
      "amenity": "Restaurant Casbah",
      "road": "Rue Houari Mahfoud",
      "neighbourhood": "Bab Dzair",
      "suburb": "Bab Ezzaouia",
      "city": "Blida ⵍⴻⴱⵍⵉⴸⴰ البليدة",
      "county": "Daïra Blida",
      "state": "Blida",
      "ISO3166-2-lvl4": "DZ-09",
      "postcode": "09000",
      "country": "Algérie ⵍⵣⵣⴰⵢⴻⵔ الجزائر",
      "country_code": "dz"
    }
  },
  {
    "name": "Resto",
    "id": 1966869214,
    "lat": 35.0586343,
    "lon": -1.4285099,
    "address": {
      "amenity": "Resto",
      "road": "شارع سي طارق",
      "town": "Remchi ⵔⵔⴻⵎⵛⵉ الرمشي",
      "county": "Daïra Remchi",
      "state": "Tlemcen ⵜⵍⴻⵎⵙⴻⵏ تلمسان",
      "ISO3166-2-lvl4": "DZ-13",
      "country": "Algérie ⵍⵣⵣⴰⵢⴻⵔ الجزائر",
      "country_code": "dz"
    }
  },
  {
    "name": "Resto",
    "id": 1966869222,
    "lat": 35.0584784,
    "lon": -1.4283504,
    "address": {
      "amenity": "Resto",
      "road": "شارع سي طارق",
      "town": "Remchi ⵔⵔⴻⵎⵛⵉ الرمشي",
      "county": "Daïra Remchi",
      "state": "Tlemcen ⵜⵍⴻⵎⵙⴻⵏ تلمسان",
      "ISO3166-2-lvl4": "DZ-13",
      "country": "Algérie ⵍⵣⵣⴰⵢⴻⵔ الجزائر",
      "country_code": "dz"
    }
  },
  {
    "name": "Resto",
    "id": 1966869255,
    "lat": 35.0588824,
    "lon": -1.4285301,
    "address": {
      "amenity": "Resto",
      "road": "شارع سي طارق",
      "town": "Remchi ⵔⵔⴻⵎⵛⵉ الرمشي",
      "county": "Daïra Remchi",
      "state": "Tlemcen ⵜⵍⴻⵎⵙⴻⵏ تلمسان",
      "ISO3166-2-lvl4": "DZ-13",
      "country": "Algérie ⵍⵣⵣⴰⵢⴻⵔ الجزائر",
      "country_code": "dz"
    }
  },
  {
    "name": "Resto",
    "id": 1966869262,
    "lat": 35.0586551,
    "lon": -1.4284389,
    "address": {
      "amenity": "Resto",
      "road": "شارع سي طارق",
      "town": "Remchi ⵔⵔⴻⵎⵛⵉ الرمشي",
      "county": "Daïra Remchi",
      "state": "Tlemcen ⵜⵍⴻⵎⵙⴻⵏ تلمسان",
      "ISO3166-2-lvl4": "DZ-13",
      "country": "Algérie ⵍⵣⵣⴰⵢⴻⵔ الجزائر",
      "country_code": "dz"
    }
  },
  {
    "name": "Resto",
    "id": 2021018336,
    "lat": 33.8894271,
    "lon": 2.8668889,
    "address": {
      "amenity": "Resto",
      "road": "Trans-Sahara",
      "city": "الأغواط",
      "county": "Daïra Laghouat",
      "state": "Laghouat",
      "ISO3166-2-lvl4": "DZ-03",
      "country": "Algérie ⵍⵣⵣⴰⵢⴻⵔ الجزائر",
      "country_code": "dz"
    }
  },
  {
    "name": "Sidi Makhlouf",
    "id": 2021039138,
    "lat": 34.1298852,
    "lon": 3.0125356,
    "address": {
      "amenity": "Sidi Makhlouf",
      "road": "Route transsaharienne",
      "village": "Sidi Makhlouf",
      "city": "Sidi Makhlouf ⵙⵉⴷⵉ ⵎⴻⵅⵍⵓⴼ سيدي مخلوف",
      "county": "Daïra Sidi Makhlouf",
      "state": "Laghouat",
      "ISO3166-2-lvl4": "DZ-03",
      "country": "Algérie ⵍⵣⵣⴰⵢⴻⵔ الجزائر",
      "country_code": "dz"
    }
  },
  {
    "name": "Restaurant Amraoua",
    "id": 2065645455,
    "lat": 36.7224237,
    "lon": 4.04105,
    "address": {
      "amenity": "Restaurant Amraoua",
      "road": "Route Amraoua",
      "village": "Redjaouna Techt",
      "city": "Tizi Ouzou",
      "county": "Daïra Tizi Ouzou",
      "state": "Tizi Ouzou",
      "ISO3166-2-lvl4": "DZ-15",
      "postcode": "15000",
      "country": "Algérie ⵍⵣⵣⴰⵢⴻⵔ الجزائر",
      "country_code": "dz"
    }
  },
  {
    "id": 2121828025,
    "lat": 36.4732549,
    "lon": 2.8232297,
    "address": {
      "road": "شارع مكركب بن يوسف",
      "neighbourhood": "Bab Essebt",
      "suburb": "Aronda",
      "city": "Blida ⵍⴻⴱⵍⵉⴸⴰ البليدة",
      "county": "Daïra Blida",
      "state": "Blida",
      "ISO3166-2-lvl4": "DZ-09",
      "postcode": "09000",
      "country": "Algérie ⵍⵣⵣⴰⵢⴻⵔ الجزائر",
      "country_code": "dz"
    }
  },
  {
    "name": "Resto",
    "id": 2153761015,
    "lat": 34.8644405,
    "lon": -1.3174461,
    "address": {
      "amenity": "Resto",
      "road": "Route Lala Setti",
      "neighbourhood": "Attar",
      "village": "Béni Boublène",
      "city": "Tlemcen",
      "county": "Daïra Tlemcen",
      "state": "Tlemcen ⵜⵍⴻⵎⵙⴻⵏ تلمسان",
      "ISO3166-2-lvl4": "DZ-13",
      "postcode": "13000",
      "country": "Algérie ⵍⵣⵣⴰⵢⴻⵔ الجزائر",
      "country_code": "dz"
    }
  },
  {
    "name": "Resto",
    "id": 2171664090,
    "lat": 36.7413068,
    "lon": 3.0389184,
    "address": {
      "amenity": "Resto",
      "road": "Rue Hamdani Lahcene",
      "neighbourhood": "Paradou",
      "hamlet": "Résidence Petit Hydra",
      "town": "Hydra ⵃⵉⴷⵔⴰ حيدرة",
      "county": "Bir Mourad Raïs",
      "state": "Alger",
      "ISO3166-2-lvl4": "DZ-16",
      "postcode": "16405",
      "country": "Algérie ⵍⵣⵣⴰⵢⴻⵔ الجزائر",
      "country_code": "dz"
    }
  },
  {
    "name": "Le Piquinois",
    "id": 2171667410,
    "lat": 36.741526,
    "lon": 3.0388942,
    "address": {
      "amenity": "Le Piquinois",
      "road": "Rue Hamdani Lahcene",
      "neighbourhood": "Paradou",
      "hamlet": "Résidence Petit Hydra",
      "town": "Hydra ⵃⵉⴷⵔⴰ حيدرة",
      "county": "Bir Mourad Raïs",
      "state": "Alger",
      "ISO3166-2-lvl4": "DZ-16",
      "postcode": "16405",
      "country": "Algérie ⵍⵣⵣⴰⵢⴻⵔ الجزائر",
      "country_code": "dz"
    }
  },
  {
    "name": "Les 2 Palmiers",
    "id": 2205651833,
    "lat": 36.732934,
    "lon": 3.9563124,
    "address": {
      "amenity": "Les 2 Palmiers",
      "road": "RN 25",
      "neighbourhood": "Cité Ouazar",
      "village": "Maryus",
      "town": "Draa Ben Khedda",
      "county": "Daïra Draa Ben Khedda",
      "state": "Tizi Ouzou",
      "ISO3166-2-lvl4": "DZ-15",
      "postcode": "15004",
      "country": "Algérie ⵍⵣⵣⴰⵢⴻⵔ الجزائر",
      "country_code": "dz"
    }
  },
  {
    "name": "Boufennech",
    "id": 2239890986,
    "lat": 36.6513973,
    "lon": 6.8341354,
    "address": {
      "amenity": "Boufennech",
      "road": "Avenue Bachir Boukadoum",
      "village": "Bir Stal",
      "town": "El Harrouche ⵍⵃⴻⵔⵔⵓⵛ الحروش",
      "county": "Daïra El Harrouch",
      "state": "Skikda",
      "ISO3166-2-lvl4": "DZ-21",
      "postcode": "21003",
      "country": "Algérie ⵍⵣⵣⴰⵢⴻⵔ الجزائر",
      "country_code": "dz"
    }
  },
  {
    "name": "DIB",
    "id": 2239891004,
    "lat": 36.6520506,
    "lon": 6.8365998,
    "address": {
      "amenity": "DIB",
      "road": "Avenue Bachir Boukadoum",
      "village": "Bir Stal",
      "town": "El Harrouche ⵍⵃⴻⵔⵔⵓⵛ الحروش",
      "county": "Daïra El Harrouch",
      "state": "Skikda",
      "ISO3166-2-lvl4": "DZ-21",
      "postcode": "21003",
      "country": "Algérie ⵍⵣⵣⴰⵢⴻⵔ الجزائر",
      "country_code": "dz"
    }
  },
  {
    "name": "LEMAABBAR",
    "id": 2239891081,
    "lat": 36.6521011,
    "lon": 6.8353101,
    "address": {
      "amenity": "LEMAABBAR",
      "road": "Rue Kedid Youcef",
      "village": "Bir Stal",
      "town": "El Harrouche ⵍⵃⴻⵔⵔⵓⵛ الحروش",
      "county": "Daïra El Harrouch",
      "state": "Skikda",
      "ISO3166-2-lvl4": "DZ-21",
      "postcode": "21003",
      "country": "Algérie ⵍⵣⵣⴰⵢⴻⵔ الجزائر",
      "country_code": "dz"
    }
  },
  {
    "name": "Ramdane",
    "id": 2239891110,
    "lat": 36.6519661,
    "lon": 6.8361801,
    "address": {
      "amenity": "Ramdane",
      "road": "Avenue Bachir Boukadoum",
      "village": "Bir Stal",
      "town": "El Harrouche ⵍⵃⴻⵔⵔⵓⵛ الحروش",
      "county": "Daïra El Harrouch",
      "state": "Skikda",
      "ISO3166-2-lvl4": "DZ-21",
      "postcode": "21003",
      "country": "Algérie ⵍⵣⵣⴰⵢⴻⵔ الجزائر",
      "country_code": "dz"
    }
  },
  {
    "name": "Resto",
    "id": 2239892283,
    "lat": 36.6515014,
    "lon": 6.8348055,
    "address": {
      "amenity": "Resto",
      "road": "Avenue Bachir Boukadoum",
      "village": "Bir Stal",
      "town": "El Harrouche ⵍⵃⴻⵔⵔⵓⵛ الحروش",
      "county": "Daïra El Harrouch",
      "state": "Skikda",
      "ISO3166-2-lvl4": "DZ-21",
      "postcode": "21003",
      "country": "Algérie ⵍⵣⵣⴰⵢⴻⵔ الجزائر",
      "country_code": "dz"
    }
  },
  {
    "name": "Chez Madaoui Djamel",
    "id": 2268658236,
    "lat": 36.6094994,
    "lon": 4.693302,
    "address": {
      "amenity": "Chez Madaoui Djamel",
      "road": "Avenue Colonel Amirouche",
      "quarter": "Quartier 08 Mai 1945",
      "suburb": "Timzeghra",
      "town": "Sidi-Aïch",
      "county": "Daïra Sidi-Aïch",
      "state": "Béjaïa",
      "ISO3166-2-lvl4": "DZ-06",
      "postcode": "06005",
      "country": "Algérie ⵍⵣⵣⴰⵢⴻⵔ الجزائر",
      "country_code": "dz"
    }
  },
  {
    "name": "La Pineraie",
    "id": 2270769964,
    "lat": 36.2536442,
    "lon": 6.6105143,
    "address": {
      "amenity": "La Pineraie",
      "road": "Evitement Ali Mendjeli",
      "suburb": "Quatre Chemins",
      "town": "El Khroub ⵍⴻⵅⵔⵓⴱ الخروب",
      "county": "Daïra El Khroub",
      "state": "Constantine",
      "ISO3166-2-lvl4": "DZ-25",
      "postcode": "25001",
      "country": "Algérie ⵍⵣⵣⴰⵢⴻⵔ الجزائر",
      "country_code": "dz"
    }
  },
  {
    "name": "Le Titanic",
    "id": 2270864915,
    "lat": 35.7026553,
    "lon": -0.6409047,
    "address": {
      "amenity": "Le Titanic",
      "road": "شارع هو تشي منه",
      "neighbourhood": "حي المجاهدين",
      "suburb": "حي يغمراسن",
      "city": "Oran",
      "county": "Daïra Oran",
      "state": "Oran",
      "ISO3166-2-lvl4": "DZ-31",
      "postcode": "31009",
      "country": "Algérie ⵍⵣⵣⴰⵢⴻⵔ الجزائر",
      "country_code": "dz"
    }
  },
  {
    "name": "Resto",
    "id": 2311191260,
    "lat": 36.7418722,
    "lon": 3.2795073,
    "address": {
      "amenity": "Resto",
      "road": "Rue Palestine",
      "town": "Rouiba ⵔⵡⵉⴱⴰ الرويبة",
      "county": "Rouiba",
      "state": "Alger",
      "ISO3166-2-lvl4": "DZ-16",
      "postcode": "16012",
      "country": "Algérie ⵍⵣⵣⴰⵢⴻⵔ الجزائر",
      "country_code": "dz"
    }
  },
  {
    "name": "Resto",
    "id": 2311321029,
    "lat": 36.5713824,
    "lon": 2.9112636,
    "address": {
      "amenity": "Resto",
      "road": "Boulevard El Fidaiyine",
      "town": "Boufarik ⴱⵓ ⴼⴰⵔⵉⴽ بوفاريك",
      "county": "Daïra Boufarik",
      "state": "Blida",
      "ISO3166-2-lvl4": "DZ-09",
      "postcode": "09001",
      "country": "Algérie ⵍⵣⵣⴰⵢⴻⵔ الجزائر",
      "country_code": "dz"
    }
  },
  {
    "name": "Resto",
    "id": 2311321072,
    "lat": 36.5723362,
    "lon": 2.9080763,
    "address": {
      "amenity": "Resto",
      "road": "Boulevard Menad Mohamed",
      "town": "Boufarik ⴱⵓ ⴼⴰⵔⵉⴽ بوفاريك",
      "county": "Daïra Boufarik",
      "state": "Blida",
      "ISO3166-2-lvl4": "DZ-09",
      "postcode": "09056",
      "country": "Algérie ⵍⵣⵣⴰⵢⴻⵔ الجزائر",
      "country_code": "dz"
    }
  },
  {
    "name": "Resto",
    "id": 2311321087,
    "lat": 36.5726404,
    "lon": 2.9113931,
    "address": {
      "amenity": "Resto",
      "road": "Rue Zidani",
      "town": "Boufarik ⴱⵓ ⴼⴰⵔⵉⴽ بوفاريك",
      "county": "Daïra Boufarik",
      "state": "Blida",
      "ISO3166-2-lvl4": "DZ-09",
      "postcode": "09001",
      "country": "Algérie ⵍⵣⵣⴰⵢⴻⵔ الجزائر",
      "country_code": "dz"
    }
  },
  {
    "name": "Le Patio",
    "id": 2318862379,
    "lat": 36.7641081,
    "lon": 3.0229377,
    "address": {
      "amenity": "Le Patio",
      "road": "نهج 11 ديسمبر 1960",
      "town": "El Biar ⵍⴻⴱⵢⴰⵔ الأبيار",
      "county": "Bouzaréah",
      "state": "Alger",
      "ISO3166-2-lvl4": "DZ-16",
      "postcode": "16030",
      "country": "Algérie ⵍⵣⵣⴰⵢⴻⵔ الجزائر",
      "country_code": "dz"
    }
  },
  {
    "name": "Le Delice",
    "id": 2327446188,
    "lat": 36.7464257,
    "lon": 4.3621663,
    "address": {
      "amenity": "Le Delice",
      "road": "RN 12",
      "neighbourhood": "Tizi Buccen",
      "village": "Bubrun",
      "town": "Azazga عزازقة",
      "county": "Daïra Azazga",
      "state": "Tizi Ouzou",
      "ISO3166-2-lvl4": "DZ-15",
      "postcode": "15300",
      "country": "Algérie ⵍⵣⵣⴰⵢⴻⵔ الجزائر",
      "country_code": "dz"
    }
  },
  {
    "name": "Djaballah",
    "id": 2327447528,
    "lat": 36.7461369,
    "lon": 4.3648667,
    "address": {
      "amenity": "Djaballah",
      "road": "شارع أحمد زائدة",
      "village": "Bubrun",
      "town": "Azazga عزازقة",
      "county": "Daïra Azazga",
      "state": "Tizi Ouzou",
      "ISO3166-2-lvl4": "DZ-15",
      "postcode": "15300",
      "country": "Algérie ⵍⵣⵣⴰⵢⴻⵔ الجزائر",
      "country_code": "dz"
    }
  },
  {
    "name": "Taiba",
    "id": 2330451825,
    "lat": 36.7405241,
    "lon": 3.2848289,
    "address": {
      "amenity": "Taiba",
      "road": "Boulevard Larbi Khaled",
      "town": "Rouiba ⵔⵡⵉⴱⴰ الرويبة",
      "county": "Rouiba",
      "state": "Alger",
      "ISO3166-2-lvl4": "DZ-16",
      "postcode": "16012",
      "country": "Algérie ⵍⵣⵣⴰⵢⴻⵔ الجزائر",
      "country_code": "dz"
    }
  },
  {
    "name": "Araucaria",
    "id": 2353484297,
    "lat": 36.7585049,
    "lon": 2.9089459,
    "address": {
      "amenity": "Araucaria",
      "road": "Autoroute de Bouchaoui",
      "village": "Bouchaoui",
      "town": "Chéraga",
      "county": "Daïra de Chéraga",
      "state": "Alger",
      "ISO3166-2-lvl4": "DZ-16",
      "postcode": "16084",
      "country": "Algérie ⵍⵣⵣⴰⵢⴻⵔ الجزائر",
      "country_code": "dz"
    }
  },
  {
    "name": "Gargote",
    "id": 2381158557,
    "lat": 36.6194651,
    "lon": 4.476949,
    "address": {
      "amenity": "Gargote",
      "road": "RN 26A",
      "hamlet": "At Mizar",
      "village": "Ḥura",
      "town": "Bouzguen",
      "county": "Daïra Bouzguen",
      "state": "Tizi Ouzou",
      "ISO3166-2-lvl4": "DZ-15",
      "postcode": "15327",
      "country": "Algérie ⵍⵣⵣⴰⵢⴻⵔ الجزائر",
      "country_code": "dz"
    }
  },
  {
    "name": "Resto",
    "id": 2381158565,
    "lat": 36.6184038,
    "lon": 4.4769892,
    "address": {
      "amenity": "Resto",
      "road": "RN 26A",
      "hamlet": "At Mizar",
      "village": "Ḥura",
      "town": "Bouzguen",
      "county": "Daïra Bouzguen",
      "state": "Tizi Ouzou",
      "ISO3166-2-lvl4": "DZ-15",
      "postcode": "15327",
      "country": "Algérie ⵍⵣⵣⴰⵢⴻⵔ الجزائر",
      "country_code": "dz"
    }
  },
  {
    "name": "Mallorca",
    "id": 2406698407,
    "lat": 36.2576831,
    "lon": 2.7579099,
    "address": {
      "amenity": "Mallorca",
      "road": "Avenue des Frères Bourouissi",
      "neighbourhood": "Cité Grodja",
      "suburb": "تاكبو",
      "village": "M'Sallah",
      "city": "Médéa ⵍⴻⵎⴷⵉⵢⴰ المدية",
      "county": "Daïra de Médéa",
      "state": "Médéa",
      "ISO3166-2-lvl4": "DZ-26",
      "postcode": "26000",
      "country": "Algérie ⵍⵣⵣⴰⵢⴻⵔ الجزائر",
      "country_code": "dz"
    }
  },
  {
    "name": "Top Chouai",
    "id": 2421377841,
    "lat": 36.4502756,
    "lon": 6.2641089,
    "address": {
      "amenity": "Top Chouai",
      "road": "1er Novembre",
      "neighbourhood": "Cité Larbi Ben R'djem 500 logements",
      "city_district": "Mila ⵎⵉⵍⴰ ميلة",
      "town": "Daïra Mila",
      "state": "Mila",
      "ISO3166-2-lvl4": "DZ-43",
      "postcode": "43000",
      "country": "Algérie ⵍⵣⵣⴰⵢⴻⵔ الجزائر",
      "country_code": "dz"
    }
  },
  {
    "name": "Resto",
    "id": 2427226256,
    "lat": 36.7263411,
    "lon": 2.8347846,
    "address": {
      "amenity": "Resto",
      "road": "CW 13",
      "village": "Village touristique du Mazafran",
      "town": "Zéralda",
      "county": "Zeralda ⵣⵉⵔⴰⵍⴷⴰ زرالدة",
      "state": "Alger",
      "ISO3166-2-lvl4": "DZ-16",
      "postcode": "16063",
      "country": "Algérie ⵍⵣⵣⴰⵢⴻⵔ الجزائر",
      "country_code": "dz"
    }
  },
  {
    "name": "Restaurant Familial",
    "id": 2428694914,
    "lat": 36.4310288,
    "lon": 2.8850854,
    "address": {
      "amenity": "Restaurant Familial",
      "road": "CW 49",
      "hamlet": "Sidi Serhane",
      "village": "Chréa ⵛⵔⵉⵄⴻⵝ الشريعة",
      "county": "Daïra Ouled Yaich",
      "state": "Blida",
      "ISO3166-2-lvl4": "DZ-09",
      "postcode": "09022",
      "country": "Algérie ⵍⵣⵣⴰⵢⴻⵔ الجزائر",
      "country_code": "dz"
    }
  },
  {
    "name": "Resto",
    "id": 2429501002,
    "lat": 36.715153,
    "lon": 3.1970021,
    "address": {
      "amenity": "Resto",
      "road": "حي 1200 مسكن",
      "suburb": "Cité 324 lgts",
      "town": "Bab Ezzouar ⴱⴰⴱ ⵣⵡⴰⵔ باب الزوار",
      "city": "Bab Ezzouar ⴱⴰⴱ ⵣⵡⴰⵔ باب الزوار",
      "county": "Dar el-Beïda",
      "state": "Alger",
      "ISO3166-2-lvl4": "DZ-16",
      "postcode": "16311",
      "country": "Algérie ⵍⵣⵣⴰⵢⴻⵔ الجزائر",
      "country_code": "dz"
    }
  },
  {
    "name": "Resto",
    "id": 2429501032,
    "lat": 36.7150931,
    "lon": 3.1968387,
    "address": {
      "amenity": "Resto",
      "road": "حي 1200 مسكن",
      "suburb": "Cité 324 lgts",
      "town": "Bab Ezzouar ⴱⴰⴱ ⵣⵡⴰⵔ باب الزوار",
      "city": "Bab Ezzouar ⴱⴰⴱ ⵣⵡⴰⵔ باب الزوار",
      "county": "Dar el-Beïda",
      "state": "Alger",
      "ISO3166-2-lvl4": "DZ-16",
      "postcode": "16311",
      "country": "Algérie ⵍⵣⵣⴰⵢⴻⵔ الجزائر",
      "country_code": "dz"
    }
  },
  {
    "name": "Resto",
    "id": 2429522141,
    "lat": 36.7468994,
    "lon": 3.1887966,
    "address": {
      "amenity": "Resto",
      "road": "Rue Salaheddine El Ayoubi",
      "suburb": "Mouhous",
      "village": "Kaidi",
      "town": "Bordj El Kiffan ⵓⵣⵎⵉⵔ ⵏ ⴰⵎⴰⵏ برج الكيفان",
      "county": "Dar el-Beïda",
      "state": "Alger",
      "ISO3166-2-lvl4": "DZ-16",
      "postcode": "16411",
      "country": "Algérie ⵍⵣⵣⴰⵢⴻⵔ الجزائر",
      "country_code": "dz"
    }
  },
  {
    "name": "City Burger",
    "id": 2429539483,
    "lat": 36.7674214,
    "lon": 3.0535341,
    "address": {
      "amenity": "City Burger",
      "road": "Rue Didouche Mourad",
      "city": "Alger ⴷⵣⴰⵢⴻⵔ الجزائر",
      "town": "Alger-Centre",
      "county": "Daïra Sidi M'Hamed",
      "state": "Alger",
      "ISO3166-2-lvl4": "DZ-16",
      "postcode": "16010",
      "country": "Algérie ⵍⵣⵣⴰⵢⴻⵔ الجزائر",
      "country_code": "dz"
    }
  },
  {
    "name": "Resto",
    "id": 2429539526,
    "lat": 36.7674307,
    "lon": 3.0533339,
    "address": {
      "amenity": "Resto",
      "road": "Rue Lieutenant Salah Boulhart",
      "suburb": "Agha",
      "city": "Alger ⴷⵣⴰⵢⴻⵔ الجزائر",
      "town": "Alger-Centre",
      "county": "Daïra Sidi M'Hamed",
      "state": "Alger",
      "ISO3166-2-lvl4": "DZ-16",
      "postcode": "16037",
      "country": "Algérie ⵍⵣⵣⴰⵢⴻⵔ الجزائر",
      "country_code": "dz"
    }
  },
  {
    "name": "Restaurant (Brahmi et freres)",
    "id": 2435294334,
    "lat": 36.6669837,
    "lon": 4.5131463,
    "address": {
      "amenity": "Restaurant (Brahmi et freres)",
      "road": "iguersafene",
      "village": "Agarsafen",
      "city": "Idjer",
      "county": "Daïra Bouzguen",
      "state": "Tizi Ouzou",
      "ISO3166-2-lvl4": "DZ-15",
      "postcode": "15036",
      "country": "Algérie ⵍⵣⵣⴰⵢⴻⵔ الجزائر",
      "country_code": "dz"
    }
  },
  {
    "name": "Resto",
    "id": 2437318980,
    "lat": 34.6672981,
    "lon": 3.2498633,
    "address": {
      "amenity": "Resto",
      "road": "Rue du 20 août 1955",
      "neighbourhood": "Cité Guennani",
      "suburb": "Ben Djerma",
      "city": "Djelfa ⴵⴻⵍⴼⴰ الجلفة",
      "county": "Daïra Djelfa",
      "state": "Djelfa",
      "ISO3166-2-lvl4": "DZ-17",
      "postcode": "17007",
      "country": "Algérie ⵍⵣⵣⴰⵢⴻⵔ الجزائر",
      "country_code": "dz"
    }
  },
  {
    "name": "المطعم المركزي",
    "id": 2439174766,
    "lat": 34.6542515,
    "lon": 3.2816791,
    "address": {
      "amenity": "المطعم المركزي",
      "road": "الطريق الداخلية للجامعة",
      "city": "Djelfa ⴵⴻⵍⴼⴰ الجلفة",
      "county": "Daïra Djelfa",
      "state": "Djelfa",
      "ISO3166-2-lvl4": "DZ-17",
      "postcode": "17000",
      "country": "Algérie ⵍⵣⵣⴰⵢⴻⵔ الجزائر",
      "country_code": "dz"
    }
  },
  {
    "name": "Resto",
    "id": 2448188399,
    "lat": 36.7547167,
    "lon": 3.4654245,
    "address": {
      "amenity": "Resto",
      "road": "Boulevard du Oued Tatareg",
      "neighbourhood": "Cité 11 décembre 1960",
      "city": "Boumerdès ⴱⵓⵎⴻⵔⴷⴰⵙ بومرداس",
      "county": "Daïra Boumerdès",
      "state": "Boumerdès",
      "ISO3166-2-lvl4": "DZ-35",
      "postcode": "35062",
      "country": "Algérie ⵍⵣⵣⴰⵢⴻⵔ الجزائر",
      "country_code": "dz"
    }
  },
  {
    "name": "Lookers Restaurant",
    "id": 2462415392,
    "lat": 34.6656522,
    "lon": 3.2554055,
    "address": {
      "amenity": "Lookers Restaurant",
      "road": "Avenue Emir Abdelkader",
      "neighbourhood": "Cité Guennani",
      "suburb": "Ben Djerma",
      "city": "Djelfa ⴵⴻⵍⴼⴰ الجلفة",
      "county": "Daïra Djelfa",
      "state": "Djelfa",
      "ISO3166-2-lvl4": "DZ-17",
      "postcode": "17000",
      "country": "Algérie ⵍⵣⵣⴰⵢⴻⵔ الجزائر",
      "country_code": "dz"
    }
  },
  {
    "name": "Restaurant Salah Eddine",
    "id": 2462415393,
    "lat": 34.6651858,
    "lon": 3.2516148,
    "address": {
      "amenity": "Restaurant Salah Eddine",
      "road": "نهج مصطفى بن بولعيد",
      "neighbourhood": "حي النعاس",
      "suburb": "Ben Djerma",
      "city": "Djelfa ⴵⴻⵍⴼⴰ الجلفة",
      "county": "Daïra Djelfa",
      "state": "Djelfa",
      "ISO3166-2-lvl4": "DZ-17",
      "postcode": "17007",
      "country": "Algérie ⵍⵣⵣⴰⵢⴻⵔ الجزائر",
      "country_code": "dz"
    }
  },
  {
    "name": "Resto",
    "id": 2477663404,
    "lat": 36.6427668,
    "lon": 2.6909973,
    "address": {
      "amenity": "Resto",
      "road": "RN 11",
      "suburb": "cite 500 logements AADLحي 500 مسكن عدل",
      "village": "Paillote",
      "town": "Bou Ismaïl ⴱⵓⵙⵎⴰⵄⵉⵍ بو إسماعيل",
      "county": "Daïra Bou Ismaïl",
      "state": "Tipaza",
      "ISO3166-2-lvl4": "DZ-42",
      "postcode": "42004",
      "country": "Algérie ⵍⵣⵣⴰⵢⴻⵔ الجزائر",
      "country_code": "dz"
    }
  },
  {
    "name": "Le perdrix",
    "id": 2479493018,
    "lat": 36.6432101,
    "lon": 2.6917081,
    "address": {
      "amenity": "Le perdrix",
      "road": "RN 11",
      "suburb": "cite 500 logements AADLحي 500 مسكن عدل",
      "village": "Paillote",
      "town": "Bou Ismaïl ⴱⵓⵙⵎⴰⵄⵉⵍ بو إسماعيل",
      "county": "Daïra Bou Ismaïl",
      "state": "Tipaza",
      "ISO3166-2-lvl4": "DZ-42",
      "postcode": "42004",
      "country": "Algérie ⵍⵣⵣⴰⵢⴻⵔ الجزائر",
      "country_code": "dz"
    }
  },
  {
    "name": "PianoPiano",
    "id": 2489332394,
    "lat": 36.7421949,
    "lon": 3.0762882,
    "address": {
      "amenity": "PianoPiano",
      "road": "Rue de Tihert",
      "town": "El Madania ⵍⵎⴰⴷⴰⵏⵢⴰ المدنية",
      "county": "Daïra Sidi M'Hamed",
      "state": "Alger",
      "ISO3166-2-lvl4": "DZ-16",
      "postcode": "16015",
      "country": "Algérie ⵍⵣⵣⴰⵢⴻⵔ الجزائر",
      "country_code": "dz"
    }
  },
  {
    "name": "مطعم",
    "id": 2507197252,
    "lat": 34.6809479,
    "lon": 3.2803899,
    "address": {
      "amenity": "مطعم",
      "road": "Route Boussaada",
      "city": "Djelfa ⴵⴻⵍⴼⴰ الجلفة",
      "county": "Daïra Djelfa",
      "state": "Djelfa",
      "ISO3166-2-lvl4": "DZ-17",
      "postcode": "17018",
      "country": "Algérie ⵍⵣⵣⴰⵢⴻⵔ الجزائر",
      "country_code": "dz"
    }
  },
  {
    "name": "Méditérannée",
    "id": 2508774547,
    "lat": 36.7523472,
    "lon": 3.7199976,
    "address": {
      "amenity": "Méditérannée",
      "road": "Autoroute Alger-Tizi Ouzou;Evitement de Bordj Menaïl",
      "hamlet": "Mekhatria",
      "village": "Cortese",
      "town": "Bordj Menaiel ⴱⵓⵔⴵ ⵎⵏⴰⵢⴻⵍ برج منايل",
      "county": "Daïra Bordj Menaiel",
      "state": "Boumerdès",
      "ISO3166-2-lvl4": "DZ-35",
      "postcode": "35001",
      "country": "Algérie ⵍⵣⵣⴰⵢⴻⵔ الجزائر",
      "country_code": "dz"
    }
  },
  {
    "name": "PINO",
    "id": 2530644057,
    "lat": 36.7579631,
    "lon": 2.8438214,
    "address": {
      "amenity": "PINO",
      "road": "CW 15",
      "suburb": "Sidi Fredj",
      "town": "Staoueli ⵙⵜⴰⵡⴰⵍⵉ سطاوالي",
      "county": "Zeralda ⵣⵉⵔⴰⵍⴷⴰ زرالدة",
      "state": "Alger",
      "ISO3166-2-lvl4": "DZ-16",
      "postcode": "16102",
      "country": "Algérie ⵍⵣⵣⴰⵢⴻⵔ الجزائر",
      "country_code": "dz"
    }
  },
  {
    "name": "Pizzeria Chippy",
    "id": 2530655013,
    "lat": 36.7320164,
    "lon": 3.087592,
    "address": {
      "amenity": "Pizzeria Chippy",
      "road": "Avenue Fellah Mohamed",
      "allotments": "Jardin aoumar merar",
      "suburb": "Jolie Vue",
      "village": "Babe el Rahba",
      "city": "Kouba ⵍⵇⵓⴱⴱⴰ القبة",
      "county": "Hussein Dey",
      "state": "Alger",
      "ISO3166-2-lvl4": "DZ-16",
      "postcode": "16040",
      "country": "Algérie ⵍⵣⵣⴰⵢⴻⵔ الجزائر",
      "country_code": "dz"
    }
  },
  {
    "name": "Mag D'or",
    "id": 2532397285,
    "lat": 36.7559221,
    "lon": 3.4783217,
    "address": {
      "amenity": "Mag D'or",
      "road": "Boulevard de l'ALN",
      "neighbourhood": "Résidence IAP Boumerdès",
      "village": "Aliliguia",
      "city": "Boumerdès ⴱⵓⵎⴻⵔⴷⴰⵙ بومرداس",
      "county": "Daïra Boumerdès",
      "state": "Boumerdès",
      "ISO3166-2-lvl4": "DZ-35",
      "postcode": "35062",
      "country": "Algérie ⵍⵣⵣⴰⵢⴻⵔ الجزائر",
      "country_code": "dz"
    }
  },
  {
    "name": "Porto Allegro",
    "id": 2537789470,
    "lat": 36.756367,
    "lon": 2.9745833,
    "address": {
      "amenity": "Porto Allegro",
      "house_number": "113",
      "road": "Rue Djenad Abderahmane",
      "town": "Dély Brahim ⴷⴻⵍⵉ ⴱⵔⴰⵀⵉⵎ دالي إبراھيم",
      "county": "Daïra de Chéraga",
      "state": "Alger",
      "ISO3166-2-lvl4": "DZ-16",
      "postcode": "16070",
      "country": "Algérie ⵍⵣⵣⴰⵢⴻⵔ الجزائر",
      "country_code": "dz"
    }
  },
  {
    "name": "Al Boustan Restaurant",
    "id": 2549794710,
    "lat": 36.7417348,
    "lon": 3.0779464,
    "address": {
      "amenity": "Al Boustan Restaurant",
      "road": "Rue de Tihert",
      "town": "El Madania ⵍⵎⴰⴷⴰⵏⵢⴰ المدنية",
      "county": "Daïra Sidi M'Hamed",
      "state": "Alger",
      "ISO3166-2-lvl4": "DZ-16",
      "postcode": "16015",
      "country": "Algérie ⵍⵣⵣⴰⵢⴻⵔ الجزائر",
      "country_code": "dz"
    }
  },
  {
    "name": "Pizza Pino",
    "id": 2571129189,
    "lat": 36.738191,
    "lon": 3.0368171,
    "address": {
      "amenity": "Pizza Pino",
      "road": "Boulevard Benyoucef Benkhedda (Chemin Sidi Yahia)",
      "suburb": "Said Hamdine",
      "town": "Bir Mourad Raïs ⴱⵉⵔ ⵎⵓⵔⴰⴷ ⵔⴰⵢⵙ بئر مراد رايس",
      "county": "Bir Mourad Raïs",
      "state": "Alger",
      "ISO3166-2-lvl4": "DZ-16",
      "postcode": "16035",
      "country": "Algérie ⵍⵣⵣⴰⵢⴻⵔ الجزائر",
      "country_code": "dz"
    }
  },
  {
    "name": "مطعم قاسي",
    "id": 2571466582,
    "lat": 36.802441,
    "lon": 6.6625774,
    "address": {
      "amenity": "مطعم قاسي",
      "road": "RN 43",
      "village": "El Merraya",
      "town": "Tamalous",
      "county": "Daïra Tamalous",
      "state": "Skikda",
      "ISO3166-2-lvl4": "DZ-21",
      "postcode": "21005",
      "country": "Algérie ⵍⵣⵣⴰⵢⴻⵔ الجزائر",
      "country_code": "dz"
    }
  },
  {
    "name": "Restaurant Pizzeria Hawai",
    "id": 2610356219,
    "lat": 35.2118745,
    "lon": -0.628218,
    "address": {
      "amenity": "Restaurant Pizzeria Hawai",
      "road": "rue zeblah mohamed",
      "neighbourhood": "Sidi Djilali",
      "suburb": "El Wiam",
      "city": "Sidi Bel Abbès ⵙⵉⴷⵉ ⴱⵍⵄⴰⴱⴰⵙ سيدي بلعباس",
      "county": "Daïra Sidi Bel Abbès",
      "state": "Sidi Bel Abbès",
      "ISO3166-2-lvl4": "DZ-22",
      "postcode": "22002",
      "country": "Algérie ⵍⵣⵣⴰⵢⴻⵔ الجزائر",
      "country_code": "dz"
    }
  },
  {
    "name": "Al Rayan",
    "id": 2610572723,
    "lat": 34.669164,
    "lon": 3.2530301,
    "address": {
      "amenity": "Al Rayan",
      "road": "حي المستشفى",
      "neighbourhood": "Cité Guennani",
      "suburb": "Ben Djerma",
      "city": "Djelfa ⴵⴻⵍⴼⴰ الجلفة",
      "county": "Daïra Djelfa",
      "state": "Djelfa",
      "ISO3166-2-lvl4": "DZ-17",
      "postcode": "17000",
      "country": "Algérie ⵍⵣⵣⴰⵢⴻⵔ الجزائر",
      "country_code": "dz"
    }
  },
  {
    "name": "Alouane",
    "id": 2614294507,
    "lat": 35.4508539,
    "lon": 2.9071148,
    "address": {
      "amenity": "Alouane",
      "road": "Rue Pasteur",
      "suburb": "Sorec sud",
      "city": "Aïn Oussara ⵄⵉⵏ ⵡⴻⵙⵙⴰⵔⴰ عين وسارة",
      "county": "Daïra Aïn Oussara",
      "state": "Djelfa",
      "ISO3166-2-lvl4": "DZ-17",
      "postcode": "17012",
      "country": "Algérie ⵍⵣⵣⴰⵢⴻⵔ الجزائر",
      "country_code": "dz"
    }
  },
  {
    "name": "Resto",
    "id": 2614294510,
    "lat": 35.4507094,
    "lon": 2.9071031,
    "address": {
      "amenity": "Resto",
      "road": "نهج زيغود يوسف",
      "neighbourhood": "Cité Ahmed Zabana",
      "suburb": "Sorec sud",
      "city": "Aïn Oussara ⵄⵉⵏ ⵡⴻⵙⵙⴰⵔⴰ عين وسارة",
      "county": "Daïra Aïn Oussara",
      "state": "Djelfa",
      "ISO3166-2-lvl4": "DZ-17",
      "postcode": "17012",
      "country": "Algérie ⵍⵣⵣⴰⵢⴻⵔ الجزائر",
      "country_code": "dz"
    }
  },
  {
    "name": "مطعم الخيمة",
    "id": 2620151015,
    "lat": 34.661625,
    "lon": 3.2629286,
    "address": {
      "amenity": "مطعم الخيمة",
      "road": "نهج المجاهدين",
      "neighbourhood": "حي العقيد محمد شعباني",
      "city": "Djelfa ⴵⴻⵍⴼⴰ الجلفة",
      "county": "Daïra Djelfa",
      "state": "Djelfa",
      "ISO3166-2-lvl4": "DZ-17",
      "postcode": "17000",
      "country": "Algérie ⵍⵣⵣⴰⵢⴻⵔ الجزائر",
      "country_code": "dz"
    }
  },
  {
    "name": "Chez Bahi",
    "id": 2623791805,
    "lat": 35.4543359,
    "lon": 2.9040097,
    "address": {
      "amenity": "Chez Bahi",
      "road": "Boulevard du 1er Novembre",
      "suburb": "Sorec sud",
      "city": "Aïn Oussara ⵄⵉⵏ ⵡⴻⵙⵙⴰⵔⴰ عين وسارة",
      "county": "Daïra Aïn Oussara",
      "state": "Djelfa",
      "ISO3166-2-lvl4": "DZ-17",
      "postcode": "17012",
      "country": "Algérie ⵍⵣⵣⴰⵢⴻⵔ الجزائر",
      "country_code": "dz"
    }
  },
  {
    "name": "Restaurant Adour",
    "id": 2623948158,
    "lat": 36.6271289,
    "lon": 4.7285642,
    "address": {
      "amenity": "Restaurant Adour",
      "road": "RN 26",
      "quarter": "CASAP",
      "suburb": "Remila",
      "village": "Remila",
      "town": "Sidi-Aïch",
      "county": "Daïra Sidi-Aïch",
      "state": "Béjaïa",
      "ISO3166-2-lvl4": "DZ-06",
      "postcode": "06005",
      "country": "Algérie ⵍⵣⵣⴰⵢⴻⵔ الجزائر",
      "country_code": "dz"
    }
  },
  {
    "name": "Paul Cazelles",
    "id": 2625843629,
    "lat": 35.45102,
    "lon": 2.907112,
    "address": {
      "amenity": "Paul Cazelles",
      "road": "Rue Pasteur",
      "suburb": "Sorec sud",
      "city": "Aïn Oussara ⵄⵉⵏ ⵡⴻⵙⵙⴰⵔⴰ عين وسارة",
      "county": "Daïra Aïn Oussara",
      "state": "Djelfa",
      "ISO3166-2-lvl4": "DZ-17",
      "postcode": "17012",
      "country": "Algérie ⵍⵣⵣⴰⵢⴻⵔ الجزائر",
      "country_code": "dz"
    }
  },
  {
    "name": "Resto",
    "id": 2625843633,
    "lat": 35.452709,
    "lon": 2.9071737,
    "address": {
      "amenity": "Resto",
      "road": "نهج زيغود يوسف",
      "neighbourhood": "Cité Ahmed Zabana",
      "suburb": "Sorec sud",
      "city": "Aïn Oussara ⵄⵉⵏ ⵡⴻⵙⵙⴰⵔⴰ عين وسارة",
      "county": "Daïra Aïn Oussara",
      "state": "Djelfa",
      "ISO3166-2-lvl4": "DZ-17",
      "postcode": "17012",
      "country": "Algérie ⵍⵣⵣⴰⵢⴻⵔ الجزائر",
      "country_code": "dz"
    }
  },
  {
    "name": "Resto",
    "id": 2627590855,
    "lat": 31.0244535,
    "lon": -2.7110962,
    "address": {
      "amenity": "Resto",
      "road": "RN 6",
      "town": "العبادلة",
      "county": "Daïra de Abadla",
      "state": "Béchar",
      "ISO3166-2-lvl4": "DZ-08",
      "country": "Algérie ⵍⵣⵣⴰⵢⴻⵔ الجزائر",
      "country_code": "dz"
    }
  },
  {
    "name": "Resto",
    "id": 2628944360,
    "lat": 35.4546646,
    "lon": 2.907098,
    "address": {
      "amenity": "Resto",
      "road": "نهج زيغود يوسف",
      "neighbourhood": "Cité Ahmed Zabana",
      "suburb": "Sorec sud",
      "city": "Aïn Oussara ⵄⵉⵏ ⵡⴻⵙⵙⴰⵔⴰ عين وسارة",
      "county": "Daïra Aïn Oussara",
      "state": "Djelfa",
      "ISO3166-2-lvl4": "DZ-17",
      "postcode": "17012",
      "country": "Algérie ⵍⵣⵣⴰⵢⴻⵔ الجزائر",
      "country_code": "dz"
    }
  },
  {
    "name": "Ben Sarié",
    "id": 2672811241,
    "lat": 36.7911024,
    "lon": 3.0532167,
    "address": {
      "amenity": "Ben Sarié",
      "road": "Boulevard du Colonel Lotfi شارع العقيد لطفي",
      "neighbourhood": "3 Horloges",
      "hamlet": "Droudj el Rounda",
      "town": "Bab El Oued ⴱⴰⴱ ⵍⵡⴻⴷ باب الوادي",
      "county": "Daïra Bab El Oued",
      "state": "Alger",
      "ISO3166-2-lvl4": "DZ-16",
      "postcode": "16131",
      "country": "Algérie ⵍⵣⵣⴰⵢⴻⵔ الجزائر",
      "country_code": "dz"
    }
  },
  {
    "name": "Resto",
    "id": 2672884692,
    "lat": 36.7687629,
    "lon": 3.0108147,
    "address": {
      "amenity": "Resto",
      "road": "vers bab El Ouad",
      "town": "El Biar ⵍⴻⴱⵢⴰⵔ الأبيار",
      "county": "Bouzaréah",
      "state": "Alger",
      "ISO3166-2-lvl4": "DZ-16",
      "postcode": "16043",
      "country": "Algérie ⵍⵣⵣⴰⵢⴻⵔ الجزائر",
      "country_code": "dz"
    }
  },
  {
    "name": "Resto",
    "id": 2672884697,
    "lat": 36.7691837,
    "lon": 3.0107687,
    "address": {
      "amenity": "Resto",
      "road": "dans le tunelle",
      "neighbourhood": "Chevalley",
      "suburb": "Baranès",
      "village": "Les Angels",
      "town": "Bouzaréah",
      "county": "Bouzaréah",
      "state": "Alger",
      "ISO3166-2-lvl4": "DZ-16",
      "postcode": "16043",
      "country": "Algérie ⵍⵣⵣⴰⵢⴻⵔ الجزائر",
      "country_code": "dz"
    }
  },
  {
    "name": "Pizza Express",
    "id": 2672916667,
    "lat": 36.779821,
    "lon": 3.0101476,
    "address": {
      "amenity": "Pizza Express",
      "road": "Avenue Remili Ali",
      "neighbourhood": "Air de France",
      "suburb": "Baranès",
      "village": "Les Angels",
      "town": "Bouzaréah",
      "county": "Bouzaréah",
      "state": "Alger",
      "ISO3166-2-lvl4": "DZ-16",
      "postcode": "16340",
      "country": "Algérie ⵍⵣⵣⴰⵢⴻⵔ الجزائر",
      "country_code": "dz"
    }
  },
  {
    "name": "Resto",
    "id": 2674553461,
    "lat": 36.7542128,
    "lon": 3.0203656,
    "address": {
      "amenity": "Resto",
      "road": "سيتي مالكي",
      "residential": "Cité Malki Mohamed",
      "town": "Ben Aknoun ⴱⴻⵏ ⴰⴽⵏⵓⵏ بن عكنون",
      "county": "Bouzaréah",
      "state": "Alger",
      "ISO3166-2-lvl4": "DZ-16",
      "postcode": "16306",
      "country": "Algérie ⵍⵣⵣⴰⵢⴻⵔ الجزائر",
      "country_code": "dz"
    }
  },
  {
    "name": "Resto",
    "id": 2674553470,
    "lat": 36.7537052,
    "lon": 3.0209376,
    "address": {
      "amenity": "Resto",
      "road": "Chemin Gadouche Abdelkader",
      "residential": "Djenane El Malik",
      "hamlet": "Résidence Petit Hydra",
      "town": "Ben Aknoun ⴱⴻⵏ ⴰⴽⵏⵓⵏ بن عكنون",
      "county": "Bouzaréah",
      "state": "Alger",
      "ISO3166-2-lvl4": "DZ-16",
      "postcode": "16070",
      "country": "Algérie ⵍⵣⵣⴰⵢⴻⵔ الجزائر",
      "country_code": "dz"
    }
  },
  {
    "name": "Resto",
    "id": 2674658946,
    "lat": 36.7438335,
    "lon": 3.0076144,
    "address": {
      "amenity": "Resto",
      "road": "Chemin Aïmeur",
      "town": "Hydra ⵃⵉⴷⵔⴰ حيدرة",
      "county": "Bir Mourad Raïs",
      "state": "Alger",
      "ISO3166-2-lvl4": "DZ-16",
      "postcode": "16028",
      "country": "Algérie ⵍⵣⵣⴰⵢⴻⵔ الجزائر",
      "country_code": "dz"
    }
  },
  {
    "name": "Park",
    "id": 2674733114,
    "lat": 36.7351796,
    "lon": 3.02293,
    "address": {
      "amenity": "Park",
      "road": "Footing track du Parc",
      "town": "Hydra ⵃⵉⴷⵔⴰ حيدرة",
      "county": "Bir Mourad Raïs",
      "state": "Alger",
      "ISO3166-2-lvl4": "DZ-16",
      "postcode": "16300",
      "country": "Algérie ⵍⵣⵣⴰⵢⴻⵔ الجزائر",
      "country_code": "dz"
    }
  },
  {
    "name": "Resto",
    "id": 2674733214,
    "lat": 36.7344425,
    "lon": 3.0255514,
    "address": {
      "amenity": "Resto",
      "road": "route de kadous",
      "suburb": "Centre Ville Hydra",
      "town": "Hydra ⵃⵉⴷⵔⴰ حيدرة",
      "county": "Bir Mourad Raïs",
      "state": "Alger",
      "ISO3166-2-lvl4": "DZ-16",
      "postcode": "16405",
      "country": "Algérie ⵍⵣⵣⴰⵢⴻⵔ الجزائر",
      "country_code": "dz"
    }
  },
  {
    "name": "Resto",
    "id": 2674733291,
    "lat": 36.7352236,
    "lon": 3.0225397,
    "address": {
      "amenity": "Resto",
      "road": "Footing track du Parc",
      "town": "Hydra ⵃⵉⴷⵔⴰ حيدرة",
      "county": "Bir Mourad Raïs",
      "state": "Alger",
      "ISO3166-2-lvl4": "DZ-16",
      "postcode": "16300",
      "country": "Algérie ⵍⵣⵣⴰⵢⴻⵔ الجزائر",
      "country_code": "dz"
    }
  },
  {
    "name": "Resto",
    "id": 2674733392,
    "lat": 36.7347024,
    "lon": 3.0215699,
    "address": {
      "amenity": "Resto",
      "road": "Footing track du Parc",
      "town": "Hydra ⵃⵉⴷⵔⴰ حيدرة",
      "county": "Bir Mourad Raïs",
      "state": "Alger",
      "ISO3166-2-lvl4": "DZ-16",
      "postcode": "16300",
      "country": "Algérie ⵍⵣⵣⴰⵢⴻⵔ الجزائر",
      "country_code": "dz"
    }
  },
  {
    "name": "Hard Rock Cafe",
    "id": 2674733393,
    "lat": 36.7342348,
    "lon": 3.0222609,
    "address": {
      "amenity": "Hard Rock Cafe",
      "road": "Footing track du Parc",
      "town": "Hydra ⵃⵉⴷⵔⴰ حيدرة",
      "county": "Bir Mourad Raïs",
      "state": "Alger",
      "ISO3166-2-lvl4": "DZ-16",
      "postcode": "16300",
      "country": "Algérie ⵍⵣⵣⴰⵢⴻⵔ الجزائر",
      "country_code": "dz"
    }
  },
  {
    "name": "Liverpool",
    "id": 2675822932,
    "lat": 36.7689138,
    "lon": 3.0202864,
    "address": {
      "amenity": "Liverpool",
      "road": "RN 41",
      "town": "El Biar ⵍⴻⴱⵢⴰⵔ الأبيار",
      "county": "Bouzaréah",
      "state": "Alger",
      "ISO3166-2-lvl4": "DZ-16",
      "postcode": "16138",
      "country": "Algérie ⵍⵣⵣⴰⵢⴻⵔ الجزائر",
      "country_code": "dz"
    }
  },
  {
    "name": "YaYou Pizza Express",
    "id": 2675822954,
    "lat": 36.790971,
    "lon": 3.0522226,
    "address": {
      "amenity": "YaYou Pizza Express",
      "road": "Boulevard du Colonel Lotfi شارع العقيد لطفي",
      "neighbourhood": "3 Horloges",
      "hamlet": "Droudj el Rounda",
      "town": "Bab El Oued ⴱⴰⴱ ⵍⵡⴻⴷ باب الوادي",
      "county": "Daïra Bab El Oued",
      "state": "Alger",
      "ISO3166-2-lvl4": "DZ-16",
      "postcode": "16131",
      "country": "Algérie ⵍⵣⵣⴰⵢⴻⵔ الجزائر",
      "country_code": "dz"
    }
  },
  {
    "name": "Pizza Express",
    "id": 2675822966,
    "lat": 36.7907854,
    "lon": 3.0511071,
    "address": {
      "amenity": "Pizza Express",
      "road": "Avenue du Colonel Lotfi شارع العقيد لطفي",
      "neighbourhood": "3 Horloges",
      "hamlet": "Droudj el Rounda",
      "town": "Bab El Oued ⴱⴰⴱ ⵍⵡⴻⴷ باب الوادي",
      "county": "Daïra Bab El Oued",
      "state": "Alger",
      "ISO3166-2-lvl4": "DZ-16",
      "postcode": "16131",
      "country": "Algérie ⵍⵣⵣⴰⵢⴻⵔ الجزائر",
      "country_code": "dz"
    }
  },
  {
    "name": "El Roudji",
    "id": 2675879074,
    "lat": 36.7901309,
    "lon": 3.052429,
    "address": {
      "amenity": "El Roudji",
      "road": "Passage Saïd Zalouk",
      "neighbourhood": "3 Horloges",
      "hamlet": "Droudj el Rounda",
      "town": "Bab El Oued ⴱⴰⴱ ⵍⵡⴻⴷ باب الوادي",
      "county": "Daïra Bab El Oued",
      "state": "Alger",
      "ISO3166-2-lvl4": "DZ-16",
      "postcode": "16131",
      "country": "Algérie ⵍⵣⵣⴰⵢⴻⵔ الجزائر",
      "country_code": "dz"
    }
  },
  {
    "name": "Pizza Express kasbah",
    "id": 2676939019,
    "lat": 36.7887549,
    "lon": 3.0169914,
    "address": {
      "amenity": "Pizza Express kasbah",
      "road": "Route Neuve",
      "residential": "El Idrissi",
      "suburb": "Baranès",
      "village": "Rouber",
      "town": "Bouzaréah",
      "county": "Bouzaréah",
      "state": "Alger",
      "ISO3166-2-lvl4": "DZ-16",
      "postcode": "16080",
      "country": "Algérie ⵍⵣⵣⴰⵢⴻⵔ الجزائر",
      "country_code": "dz"
    }
  },
  {
    "name": "Jenina",
    "id": 2692608141,
    "lat": 36.7614011,
    "lon": 3.0476178,
    "address": {
      "amenity": "Jenina",
      "road": "Rue Didouche Mourad",
      "suburb": "Agha",
      "town": "ⵙⵉⴷⵉ ⵎⵃⴻⵎⵎⴻⴷ سيدي امحمد",
      "county": "Daïra Sidi M'Hamed",
      "state": "Alger",
      "ISO3166-2-lvl4": "DZ-16",
      "postcode": "16008",
      "country": "Algérie ⵍⵣⵣⴰⵢⴻⵔ الجزائر",
      "country_code": "dz"
    }
  },
  {
    "name": "Poisson rouge",
    "id": 2701270055,
    "lat": 36.7904228,
    "lon": 3.0524655,
    "address": {
      "amenity": "Poisson rouge",
      "road": "Rue Ahmed Boukhezer شارع أحمد بوخزار",
      "neighbourhood": "3 Horloges",
      "hamlet": "Droudj el Rounda",
      "town": "Bab El Oued ⴱⴰⴱ ⵍⵡⴻⴷ باب الوادي",
      "county": "Daïra Bab El Oued",
      "state": "Alger",
      "ISO3166-2-lvl4": "DZ-16",
      "postcode": "16021",
      "country": "Algérie ⵍⵣⵣⴰⵢⴻⵔ الجزائر",
      "country_code": "dz"
    }
  },
  {
    "name": "Chewai El Cherke",
    "id": 2701270056,
    "lat": 36.7909107,
    "lon": 3.0527521,
    "address": {
      "amenity": "Chewai El Cherke",
      "road": "Rue Frères Driraoui شارع الإخوة دراوي",
      "neighbourhood": "3 Horloges",
      "hamlet": "Droudj el Rounda",
      "town": "Bab El Oued ⴱⴰⴱ ⵍⵡⴻⴷ باب الوادي",
      "county": "Daïra Bab El Oued",
      "state": "Alger",
      "ISO3166-2-lvl4": "DZ-16",
      "postcode": "16131",
      "country": "Algérie ⵍⵣⵣⴰⵢⴻⵔ الجزائر",
      "country_code": "dz"
    }
  },
  {
    "name": "Resto",
    "id": 2705619179,
    "lat": 36.7268318,
    "lon": 3.390152,
    "address": {
      "amenity": "Resto",
      "road": "Première Rocade Sud",
      "town": "Boudouaou ⴱⵓⴷⵡⴰⵡ بودواو",
      "county": "Daïra Boudouaou",
      "state": "Boumerdès",
      "ISO3166-2-lvl4": "DZ-35",
      "postcode": "35400",
      "country": "Algérie ⵍⵣⵣⴰⵢⴻⵔ الجزائر",
      "country_code": "dz"
    }
  },
  {
    "name": "Pizza Express",
    "id": 2713773180,
    "lat": 35.7056775,
    "lon": -0.8916321,
    "address": {
      "amenity": "Pizza Express",
      "road": "CW 84",
      "village": "Les Andalouses",
      "county": "Daïra Aïn Turk",
      "state": "Oran",
      "ISO3166-2-lvl4": "DZ-31",
      "country": "Algérie ⵍⵣⵣⴰⵢⴻⵔ الجزائر",
      "country_code": "dz"
    }
  },
  {
    "name": "Resto",
    "id": 2713773181,
    "lat": 35.7057898,
    "lon": -0.8910304,
    "address": {
      "amenity": "Resto",
      "road": "CW 84",
      "village": "Les Andalouses",
      "county": "Daïra Aïn Turk",
      "state": "Oran",
      "ISO3166-2-lvl4": "DZ-31",
      "country": "Algérie ⵍⵣⵣⴰⵢⴻⵔ الجزائر",
      "country_code": "dz"
    }
  },
  {
    "name": "Resto",
    "id": 2713773182,
    "lat": 35.7058294,
    "lon": -0.8904937,
    "address": {
      "amenity": "Resto",
      "road": "CW 84",
      "village": "Les Andalouses",
      "county": "Daïra Aïn Turk",
      "state": "Oran",
      "ISO3166-2-lvl4": "DZ-31",
      "country": "Algérie ⵍⵣⵣⴰⵢⴻⵔ الجزائر",
      "country_code": "dz"
    }
  },
  {
    "name": "Resto",
    "id": 2713773183,
    "lat": 35.7054761,
    "lon": -0.8914207,
    "address": {
      "amenity": "Resto",
      "road": "CW 84",
      "village": "Les Andalouses",
      "county": "Daïra Aïn Turk",
      "state": "Oran",
      "ISO3166-2-lvl4": "DZ-31",
      "country": "Algérie ⵍⵣⵣⴰⵢⴻⵔ الجزائر",
      "country_code": "dz"
    }
  },
  {
    "name": "Resto",
    "id": 2713824243,
    "lat": 36.7911463,
    "lon": 3.0168882,
    "address": {
      "amenity": "Resto",
      "road": "Entrée de marché",
      "village": "Kasdari",
      "town": "Bouzaréah",
      "county": "Bouzaréah",
      "state": "Alger",
      "ISO3166-2-lvl4": "DZ-16",
      "postcode": "16340",
      "country": "Algérie ⵍⵣⵣⴰⵢⴻⵔ الجزائر",
      "country_code": "dz"
    }
  },
  {
    "name": "Resto",
    "id": 2713824257,
    "lat": 36.7898903,
    "lon": 3.0166803,
    "address": {
      "amenity": "Resto",
      "road": "Avenue Remili Ali",
      "neighbourhood": "Air de France",
      "suburb": "Baranès",
      "village": "Les Angels",
      "town": "Bouzaréah",
      "county": "Bouzaréah",
      "state": "Alger",
      "ISO3166-2-lvl4": "DZ-16",
      "postcode": "16340",
      "country": "Algérie ⵍⵣⵣⴰⵢⴻⵔ الجزائر",
      "country_code": "dz"
    }
  },
  {
    "name": "Resto",
    "id": 2716914288,
    "lat": 36.6308946,
    "lon": 2.9025872,
    "address": {
      "amenity": "Resto",
      "road": "RN 67",
      "hamlet": "Reguiegue",
      "town": "Douera ⴷⵡⵉⵔⴰ دويرة",
      "county": "Birtouta",
      "state": "Alger",
      "ISO3166-2-lvl4": "DZ-16",
      "country": "Algérie ⵍⵣⵣⴰⵢⴻⵔ الجزائر",
      "country_code": "dz"
    }
  },
  {
    "name": "Resto",
    "id": 2718967315,
    "lat": 36.6986933,
    "lon": 2.9708763,
    "address": {
      "amenity": "Resto",
      "road": "Rue Kaci Mohamed",
      "hamlet": "Citée El Kheir",
      "village": "Aadl 2020 Baba Hassen",
      "town": "Baba Hassen ⴱⴰⴱⴰ ⵃⴰⵙⴻⵏ بابا حسن",
      "county": "Draria",
      "state": "Alger",
      "ISO3166-2-lvl4": "DZ-16",
      "postcode": "16081",
      "country": "Algérie ⵍⵣⵣⴰⵢⴻⵔ الجزائر",
      "country_code": "dz"
    }
  },
  {
    "name": "Le Romana",
    "id": 2720663173,
    "lat": 36.5931136,
    "lon": 2.4471677,
    "address": {
      "amenity": "Le Romana",
      "road": "Rue Aïssat Idir",
      "suburb": "Cité 40 Logements",
      "town": "Tipaza تيبازة",
      "county": "Daïra Tipaza",
      "state": "Tipaza",
      "ISO3166-2-lvl4": "DZ-42",
      "postcode": "42000",
      "country": "Algérie ⵍⵣⵣⴰⵢⴻⵔ الجزائر",
      "country_code": "dz"
    }
  },
  {
    "id": 2720663182,
    "lat": 36.5929481,
    "lon": 2.4473893,
    "address": {
      "road": "Rue Aïssat Idir",
      "suburb": "Cité 40 Logements",
      "town": "Tipaza تيبازة",
      "county": "Daïra Tipaza",
      "state": "Tipaza",
      "ISO3166-2-lvl4": "DZ-42",
      "postcode": "42000",
      "country": "Algérie ⵍⵣⵣⴰⵢⴻⵔ الجزائر",
      "country_code": "dz"
    }
  },
  {
    "id": 2720663206,
    "lat": 36.5930318,
    "lon": 2.4477842,
    "address": {
      "road": "Rue Aïssat Idir",
      "suburb": "Cité 40 Logements",
      "town": "Tipaza تيبازة",
      "county": "Daïra Tipaza",
      "state": "Tipaza",
      "ISO3166-2-lvl4": "DZ-42",
      "postcode": "42000",
      "country": "Algérie ⵍⵣⵣⴰⵢⴻⵔ الجزائر",
      "country_code": "dz"
    }
  },
  {
    "name": "Brasserie des facultés",
    "id": 2726786668,
    "lat": 36.7712488,
    "lon": 3.0573439,
    "address": {
      "amenity": "Brasserie des facultés",
      "road": "Rue Hamani Arezki",
      "city": "Alger ⴷⵣⴰⵢⴻⵔ الجزائر",
      "town": "Alger-Centre",
      "county": "Daïra Sidi M'Hamed",
      "state": "Alger",
      "ISO3166-2-lvl4": "DZ-16",
      "postcode": "16037",
      "country": "Algérie ⵍⵣⵣⴰⵢⴻⵔ الجزائر",
      "country_code": "dz"
    }
  },
  {
    "id": 2726810543,
    "lat": 36.7855368,
    "lon": 3.0650271,
    "address": {
      "amenity": "رستو",
      "road": "Rue d'Angkor",
      "town": "Casbah ⵝⴰⵇⵚⴻⴲⵝ القصبة",
      "county": "Daïra Bab El Oued",
      "state": "Alger",
      "ISO3166-2-lvl4": "DZ-16",
      "postcode": "16011",
      "country": "Algérie ⵍⵣⵣⴰⵢⴻⵔ الجزائر",
      "country_code": "dz"
    }
  },
  {
    "name": "Pizza Show",
    "id": 2727462791,
    "lat": 36.7303369,
    "lon": 3.0843642,
    "address": {
      "amenity": "Pizza Show",
      "road": "Rue des Freres Ferroum",
      "allotments": "Jardin aoumar merar",
      "suburb": "Jolie Vue",
      "village": "Babe el Rahba",
      "city": "Kouba ⵍⵇⵓⴱⴱⴰ القبة",
      "county": "Hussein Dey",
      "state": "Alger",
      "ISO3166-2-lvl4": "DZ-16",
      "postcode": "16308",
      "country": "Algérie ⵍⵣⵣⴰⵢⴻⵔ الجزائر",
      "country_code": "dz"
    }
  },
  {
    "name": "Resto",
    "id": 2736797323,
    "lat": 36.6162689,
    "lon": 4.4778609,
    "address": {
      "amenity": "Resto",
      "road": "RN 26A",
      "hamlet": "At Mizar",
      "village": "Ḥura",
      "town": "Bouzguen",
      "county": "Daïra Bouzguen",
      "state": "Tizi Ouzou",
      "ISO3166-2-lvl4": "DZ-15",
      "postcode": "15327",
      "country": "Algérie ⵍⵣⵣⴰⵢⴻⵔ الجزائر",
      "country_code": "dz"
    }
  },
  {
    "name": "Resto",
    "id": 2736836179,
    "lat": 36.6172162,
    "lon": 4.4770321,
    "address": {
      "amenity": "Resto",
      "road": "RN 26A",
      "hamlet": "At Mizar",
      "village": "Ḥura",
      "town": "Bouzguen",
      "county": "Daïra Bouzguen",
      "state": "Tizi Ouzou",
      "ISO3166-2-lvl4": "DZ-15",
      "postcode": "15327",
      "country": "Algérie ⵍⵣⵣⴰⵢⴻⵔ الجزائر",
      "country_code": "dz"
    }
  },
  {
    "name": "Resto",
    "id": 2737009272,
    "lat": 36.6161792,
    "lon": 4.4787045,
    "address": {
      "amenity": "Resto",
      "road": "RN 26A",
      "hamlet": "At Mizar",
      "village": "Ḥura",
      "town": "Bouzguen",
      "county": "Daïra Bouzguen",
      "state": "Tizi Ouzou",
      "ISO3166-2-lvl4": "DZ-15",
      "postcode": "15327",
      "country": "Algérie ⵍⵣⵣⴰⵢⴻⵔ الجزائر",
      "country_code": "dz"
    }
  },
  {
    "name": "Sidi Fredj",
    "id": 2740308204,
    "lat": 36.7624228,
    "lon": 2.8447576,
    "address": {
      "amenity": "Sidi Fredj",
      "road": "CW 15",
      "suburb": "Sidi Fredj",
      "town": "Staoueli ⵙⵜⴰⵡⴰⵍⵉ سطاوالي",
      "county": "Zeralda ⵣⵉⵔⴰⵍⴷⴰ زرالدة",
      "state": "Alger",
      "ISO3166-2-lvl4": "DZ-16",
      "postcode": "16102",
      "country": "Algérie ⵍⵣⵣⴰⵢⴻⵔ الجزائر",
      "country_code": "dz"
    }
  },
  {
    "name": "Resto",
    "id": 2740308206,
    "lat": 36.763239,
    "lon": 2.8462628,
    "address": {
      "amenity": "Resto",
      "road": "CW 15",
      "suburb": "Sidi Fredj",
      "town": "Staoueli ⵙⵜⴰⵡⴰⵍⵉ سطاوالي",
      "county": "Zeralda ⵣⵉⵔⴰⵍⴷⴰ زرالدة",
      "state": "Alger",
      "ISO3166-2-lvl4": "DZ-16",
      "postcode": "16102",
      "country": "Algérie ⵍⵣⵣⴰⵢⴻⵔ الجزائر",
      "country_code": "dz"
    }
  },
  {
    "name": "Corso Sidi Fredj",
    "id": 2740308217,
    "lat": 36.7648235,
    "lon": 2.8475189,
    "address": {
      "amenity": "Corso Sidi Fredj",
      "road": "CW 15",
      "suburb": "Sidi Fredj",
      "town": "Staoueli ⵙⵜⴰⵡⴰⵍⵉ سطاوالي",
      "county": "Zeralda ⵣⵉⵔⴰⵍⴷⴰ زرالدة",
      "state": "Alger",
      "ISO3166-2-lvl4": "DZ-16",
      "postcode": "16102",
      "country": "Algérie ⵍⵣⵣⴰⵢⴻⵔ الجزائر",
      "country_code": "dz"
    }
  },
  {
    "name": "Resto",
    "id": 2740484947,
    "lat": 36.7404175,
    "lon": 2.8441677,
    "address": {
      "amenity": "Resto",
      "road": "Azur Plage",
      "suburb": "شاطئ النخيل",
      "town": "Staoueli ⵙⵜⴰⵡⴰⵍⵉ سطاوالي",
      "county": "Zeralda ⵣⵉⵔⴰⵍⴷⴰ زرالدة",
      "state": "Alger",
      "ISO3166-2-lvl4": "DZ-16",
      "postcode": "16063",
      "country": "Algérie ⵍⵣⵣⴰⵢⴻⵔ الجزائر",
      "country_code": "dz"
    }
  },
  {
    "name": "Resto",
    "id": 2740484953,
    "lat": 36.7397312,
    "lon": 2.8436155,
    "address": {
      "amenity": "Resto",
      "road": "Azur Plage",
      "suburb": "شاطئ النخيل",
      "town": "Staoueli ⵙⵜⴰⵡⴰⵍⵉ سطاوالي",
      "county": "Zeralda ⵣⵉⵔⴰⵍⴷⴰ زرالدة",
      "state": "Alger",
      "ISO3166-2-lvl4": "DZ-16",
      "postcode": "16063",
      "country": "Algérie ⵍⵣⵣⴰⵢⴻⵔ الجزائر",
      "country_code": "dz"
    }
  },
  {
    "name": "Resto",
    "id": 2740484958,
    "lat": 36.7392603,
    "lon": 2.8433607,
    "address": {
      "amenity": "Resto",
      "road": "Azur Plage",
      "suburb": "شاطئ النخيل",
      "town": "Staoueli ⵙⵜⴰⵡⴰⵍⵉ سطاوالي",
      "county": "Zeralda ⵣⵉⵔⴰⵍⴷⴰ زرالدة",
      "state": "Alger",
      "ISO3166-2-lvl4": "DZ-16",
      "postcode": "16063",
      "country": "Algérie ⵍⵣⵣⴰⵢⴻⵔ الجزائر",
      "country_code": "dz"
    }
  },
  {
    "name": "Resto",
    "id": 2740484963,
    "lat": 36.7411407,
    "lon": 2.8445003,
    "address": {
      "amenity": "Resto",
      "road": "Azur Plage",
      "suburb": "شاطئ النخيل",
      "town": "Staoueli ⵙⵜⴰⵡⴰⵍⵉ سطاوالي",
      "county": "Zeralda ⵣⵉⵔⴰⵍⴷⴰ زرالدة",
      "state": "Alger",
      "ISO3166-2-lvl4": "DZ-16",
      "postcode": "16063",
      "country": "Algérie ⵍⵣⵣⴰⵢⴻⵔ الجزائر",
      "country_code": "dz"
    }
  },
  {
    "name": "Resto",
    "id": 2740485100,
    "lat": 36.7437321,
    "lon": 2.8458712,
    "address": {
      "amenity": "Resto",
      "suburb": "شاطئ النخيل",
      "town": "Staoueli ⵙⵜⴰⵡⴰⵍⵉ سطاوالي",
      "county": "Zeralda ⵣⵉⵔⴰⵍⴷⴰ زرالدة",
      "state": "Alger",
      "ISO3166-2-lvl4": "DZ-16",
      "postcode": "16063",
      "country": "Algérie ⵍⵣⵣⴰⵢⴻⵔ الجزائر",
      "country_code": "dz"
    }
  },
  {
    "name": "Resto",
    "id": 2740485113,
    "lat": 36.7435113,
    "lon": 2.8463336,
    "address": {
      "amenity": "Resto",
      "road": "Azur Plage",
      "suburb": "شاطئ النخيل",
      "town": "Staoueli ⵙⵜⴰⵡⴰⵍⵉ سطاوالي",
      "county": "Zeralda ⵣⵉⵔⴰⵍⴷⴰ زرالدة",
      "state": "Alger",
      "ISO3166-2-lvl4": "DZ-16",
      "postcode": "16063",
      "country": "Algérie ⵍⵣⵣⴰⵢⴻⵔ الجزائر",
      "country_code": "dz"
    }
  },
  {
    "name": "Resto",
    "id": 2744472667,
    "lat": 36.7349492,
    "lon": 3.0235963,
    "address": {
      "amenity": "Resto",
      "road": "Footing track du Parc",
      "town": "Hydra ⵃⵉⴷⵔⴰ حيدرة",
      "county": "Bir Mourad Raïs",
      "state": "Alger",
      "ISO3166-2-lvl4": "DZ-16",
      "postcode": "16300",
      "country": "Algérie ⵍⵣⵣⴰⵢⴻⵔ الجزائر",
      "country_code": "dz"
    }
  },
  {
    "name": "Resto",
    "id": 2744472675,
    "lat": 36.7342578,
    "lon": 3.0260581,
    "address": {
      "amenity": "Resto",
      "road": "route de kadous",
      "suburb": "Centre Ville Hydra",
      "town": "Hydra ⵃⵉⴷⵔⴰ حيدرة",
      "county": "Bir Mourad Raïs",
      "state": "Alger",
      "ISO3166-2-lvl4": "DZ-16",
      "postcode": "16405",
      "country": "Algérie ⵍⵣⵣⴰⵢⴻⵔ الجزائر",
      "country_code": "dz"
    }
  },
  {
    "name": "Resto",
    "id": 2744529471,
    "lat": 36.7316589,
    "lon": 3.0485326,
    "address": {
      "amenity": "Resto",
      "road": "RN 1",
      "suburb": "Les Vergers",
      "town": "Bir Mourad Raïs ⴱⵉⵔ ⵎⵓⵔⴰⴷ ⵔⴰⵢⵙ بئر مراد رايس",
      "county": "Bir Mourad Raïs",
      "state": "Alger",
      "ISO3166-2-lvl4": "DZ-16",
      "postcode": "16050",
      "country": "Algérie ⵍⵣⵣⴰⵢⴻⵔ الجزائر",
      "country_code": "dz"
    }
  },
  {
    "name": "بيتزا هت",
    "id": 2744529613,
    "lat": 36.7264251,
    "lon": 3.0565073,
    "address": {
      "amenity": "بيتزا هت",
      "road": "Rue n°12",
      "neighbourhood": "Ain Soltane",
      "city": "Kouba ⵍⵇⵓⴱⴱⴰ القبة",
      "county": "Hussein Dey",
      "state": "Alger",
      "ISO3166-2-lvl4": "DZ-16",
      "postcode": "16108",
      "country": "Algérie ⵍⵣⵣⴰⵢⴻⵔ الجزائر",
      "country_code": "dz"
    }
  },
  {
    "name": "Resto",
    "id": 2744529622,
    "lat": 36.7353064,
    "lon": 3.0660795,
    "address": {
      "amenity": "Resto",
      "road": "Route des Anassers",
      "suburb": "Jolie Vue",
      "city": "Kouba ⵍⵇⵓⴱⴱⴰ القبة",
      "county": "Hussein Dey",
      "state": "Alger",
      "ISO3166-2-lvl4": "DZ-16",
      "postcode": "16408",
      "country": "Algérie ⵍⵣⵣⴰⵢⴻⵔ الجزائر",
      "country_code": "dz"
    }
  },
  {
    "name": "Resto",
    "id": 2744529625,
    "lat": 36.735262,
    "lon": 3.0661997,
    "address": {
      "amenity": "Resto",
      "road": "Route des Anassers",
      "suburb": "Jolie Vue",
      "city": "Kouba ⵍⵇⵓⴱⴱⴰ القبة",
      "county": "Hussein Dey",
      "state": "Alger",
      "ISO3166-2-lvl4": "DZ-16",
      "postcode": "16408",
      "country": "Algérie ⵍⵣⵣⴰⵢⴻⵔ الجزائر",
      "country_code": "dz"
    }
  },
  {
    "name": "Resto",
    "id": 2744651348,
    "lat": 36.7764865,
    "lon": 3.058353,
    "address": {
      "amenity": "Resto",
      "road": "ساحة الأمير عبد القادر",
      "city": "Alger ⴷⵣⴰⵢⴻⵔ الجزائر",
      "town": "Alger-Centre",
      "county": "Daïra Sidi M'Hamed",
      "state": "Alger",
      "ISO3166-2-lvl4": "DZ-16",
      "postcode": "16007",
      "country": "Algérie ⵍⵣⵣⴰⵢⴻⵔ الجزائر",
      "country_code": "dz"
    }
  },
  {
    "name": "Resto",
    "id": 2744651392,
    "lat": 36.7719312,
    "lon": 3.055594,
    "address": {
      "amenity": "Resto",
      "road": "شارغ الدكتور الشريف سعدان",
      "city": "Alger ⴷⵣⴰⵢⴻⵔ الجزائر",
      "town": "Alger-Centre",
      "county": "Daïra Sidi M'Hamed",
      "state": "Alger",
      "ISO3166-2-lvl4": "DZ-16",
      "postcode": "16007",
      "country": "Algérie ⵍⵣⵣⴰⵢⴻⵔ الجزائر",
      "country_code": "dz"
    }
  },
  {
    "name": "Resto",
    "id": 2744651434,
    "lat": 36.7731495,
    "lon": 3.0588467,
    "address": {
      "amenity": "Resto",
      "road": "Boulevard Mohamed Khemisti",
      "city": "Alger ⴷⵣⴰⵢⴻⵔ الجزائر",
      "town": "Alger-Centre",
      "county": "Daïra Sidi M'Hamed",
      "state": "Alger",
      "ISO3166-2-lvl4": "DZ-16",
      "postcode": "16007",
      "country": "Algérie ⵍⵣⵣⴰⵢⴻⵔ الجزائر",
      "country_code": "dz"
    }
  },
  {
    "name": "Resto",
    "id": 2744651587,
    "lat": 36.7796462,
    "lon": 3.0590459,
    "address": {
      "amenity": "Resto",
      "road": "شارع علي بومنجل",
      "city": "Alger ⴷⵣⴰⵢⴻⵔ الجزائر",
      "town": "Alger-Centre",
      "county": "Daïra Sidi M'Hamed",
      "state": "Alger",
      "ISO3166-2-lvl4": "DZ-16",
      "postcode": "16011",
      "country": "Algérie ⵍⵣⵣⴰⵢⴻⵔ الجزائر",
      "country_code": "dz"
    }
  },
  {
    "id": 2744651726,
    "lat": 36.7810309,
    "lon": 3.060086,
    "address": {
      "road": "Rue Abderrahmane Nait Merzouk",
      "town": "Casbah ⵝⴰⵇⵚⴻⴲⵝ القصبة",
      "city": "القصبة",
      "county": "Daïra Bab El Oued",
      "state": "Alger",
      "ISO3166-2-lvl4": "DZ-16",
      "postcode": "16011",
      "country": "Algérie ⵍⵣⵣⴰⵢⴻⵔ الجزائر",
      "country_code": "dz"
    }
  },
  {
    "id": 2747916722,
    "lat": 36.7406495,
    "lon": 3.1286118,
    "address": {
      "town": "Hussein Dey ⵃⵓⵙⵉⵏ ⴷⴻⵢ حسين داي",
      "county": "Hussein Dey",
      "state": "Alger",
      "ISO3166-2-lvl4": "DZ-16",
      "postcode": "16122",
      "country": "Algérie ⵍⵣⵣⴰⵢⴻⵔ الجزائر",
      "country_code": "dz"
    }
  },
  {
    "name": "carantica CHALABI",
    "id": 2752242509,
    "lat": 35.7439515,
    "lon": -0.7669645,
    "address": {
      "amenity": "carantica CHALABI",
      "road": "نهج ميلينت",
      "town": "Aïn El Turk ⵄⵉⵏ ⵟⵟⵓⵔⴽ عين الترك",
      "county": "Daïra Aïn Turk",
      "state": "Oran",
      "ISO3166-2-lvl4": "DZ-31",
      "postcode": "31311",
      "country": "Algérie ⵍⵣⵣⴰⵢⴻⵔ الجزائر",
      "country_code": "dz"
    }
  },
  {
    "name": "Restaurant Mausolée Royal de Maurétanie",
    "id": 2753887081,
    "lat": 36.5744799,
    "lon": 2.5539678,
    "address": {
      "amenity": "Restaurant Mausolée Royal de Maurétanie",
      "road": "Route du Mausolée",
      "town": "سيدي راشد",
      "county": "Daïra Ahmer El Aïn",
      "state": "Tipaza",
      "ISO3166-2-lvl4": "DZ-42",
      "postcode": "42250",
      "country": "Algérie ⵍⵣⵣⴰⵢⴻⵔ الجزائر",
      "country_code": "dz"
    }
  },
  {
    "name": "Resto",
    "id": 2753929922,
    "lat": 36.5943161,
    "lon": 2.4730588,
    "address": {
      "amenity": "Resto",
      "road": "Rue de Corne D'or",
      "quarter": "Cité 1700 Hadika AADL حي 1700 الحديقة",
      "suburb": "Rabta",
      "town": "Tipaza تيبازة",
      "county": "Daïra Tipaza",
      "state": "Tipaza",
      "ISO3166-2-lvl4": "DZ-42",
      "postcode": "42000",
      "country": "Algérie ⵍⵣⵣⴰⵢⴻⵔ الجزائر",
      "country_code": "dz"
    }
  },
  {
    "id": 2754033312,
    "lat": 36.7563117,
    "lon": 2.9081914,
    "address": {
      "road": "CW 133",
      "town": "Chéraga",
      "county": "Daïra de Chéraga",
      "state": "Alger",
      "ISO3166-2-lvl4": "DZ-16",
      "postcode": "16101",
      "country": "Algérie ⵍⵣⵣⴰⵢⴻⵔ الجزائر",
      "country_code": "dz"
    }
  },
  {
    "name": "Resto",
    "id": 2754094174,
    "lat": 36.6571094,
    "lon": 2.8735611,
    "address": {
      "amenity": "Resto",
      "road": "CW 112",
      "hamlet": "Ouled Mendil Gheraba",
      "village": "Douar Sidi Abdellah",
      "town": "Mâalma ⵎⴰⵃⴻⵍⵎⴰ محالمة",
      "county": "Zeralda ⵣⵉⵔⴰⵍⴷⴰ زرالدة",
      "state": "Alger",
      "ISO3166-2-lvl4": "DZ-16",
      "country": "Algérie ⵍⵣⵣⴰⵢⴻⵔ الجزائر",
      "country_code": "dz"
    }
  },
  {
    "name": "Pizza Express",
    "id": 2754400939,
    "lat": 36.7690115,
    "lon": 3.0243796,
    "address": {
      "amenity": "Pizza Express",
      "road": "شارع الإخوة حمناش",
      "town": "El Biar ⵍⴻⴱⵢⴰⵔ الأبيار",
      "county": "Bouzaréah",
      "state": "Alger",
      "ISO3166-2-lvl4": "DZ-16",
      "postcode": "16138",
      "country": "Algérie ⵍⵣⵣⴰⵢⴻⵔ الجزائر",
      "country_code": "dz"
    }
  },
  {
    "name": "La Pataterie",
    "id": 2754535579,
    "lat": 36.7694404,
    "lon": 3.0307986,
    "address": {
      "amenity": "La Pataterie",
      "road": "Avenue Khodja Mustapha dit Ali",
      "town": "El Biar ⵍⴻⴱⵢⴰⵔ الأبيار",
      "county": "Bouzaréah",
      "state": "Alger",
      "ISO3166-2-lvl4": "DZ-16",
      "postcode": "16138",
      "country": "Algérie ⵍⵣⵣⴰⵢⴻⵔ الجزائر",
      "country_code": "dz"
    }
  },
  {
    "name": "Resto",
    "id": 2754535585,
    "lat": 36.7671135,
    "lon": 3.0304762,
    "address": {
      "amenity": "Resto",
      "road": "Rue Chabane Mohamed",
      "town": "El Biar ⵍⴻⴱⵢⴰⵔ الأبيار",
      "county": "Bouzaréah",
      "state": "Alger",
      "ISO3166-2-lvl4": "DZ-16",
      "postcode": "16034",
      "country": "Algérie ⵍⵣⵣⴰⵢⴻⵔ الجزائر",
      "country_code": "dz"
    }
  },
  {
    "name": "Resto",
    "id": 2754535587,
    "lat": 36.7668045,
    "lon": 3.0304904,
    "address": {
      "amenity": "Resto",
      "road": "Rue Chabane Mohamed",
      "town": "El Biar ⵍⴻⴱⵢⴰⵔ الأبيار",
      "county": "Bouzaréah",
      "state": "Alger",
      "ISO3166-2-lvl4": "DZ-16",
      "postcode": "16034",
      "country": "Algérie ⵍⵣⵣⴰⵢⴻⵔ الجزائر",
      "country_code": "dz"
    }
  },
  {
    "name": "Resto",
    "id": 2755765502,
    "lat": 36.7762874,
    "lon": 3.0170575,
    "address": {
      "amenity": "Resto",
      "road": "Route Neuve",
      "residential": "El Idrissi",
      "suburb": "Baranès",
      "village": "Rouber",
      "town": "Bouzaréah",
      "county": "Bouzaréah",
      "state": "Alger",
      "ISO3166-2-lvl4": "DZ-16",
      "postcode": "16080",
      "country": "Algérie ⵍⵣⵣⴰⵢⴻⵔ الجزائر",
      "country_code": "dz"
    }
  },
  {
    "name": "Resto",
    "id": 2755765509,
    "lat": 36.7729314,
    "lon": 3.0192647,
    "address": {
      "amenity": "Resto",
      "road": "Route de Frais Vallon",
      "neighbourhood": "Chevalley",
      "suburb": "Baranès",
      "village": "Carnot",
      "town": "Bouzaréah",
      "county": "Bouzaréah",
      "state": "Alger",
      "ISO3166-2-lvl4": "DZ-16",
      "postcode": "16138",
      "country": "Algérie ⵍⵣⵣⴰⵢⴻⵔ الجزائر",
      "country_code": "dz"
    }
  },
  {
    "name": "Carnot",
    "id": 2755765530,
    "lat": 36.773258,
    "lon": 3.0224592,
    "address": {
      "amenity": "Carnot",
      "road": "Chevalley",
      "suburb": "Baranès",
      "village": "Carnot",
      "town": "Bouzaréah",
      "county": "Bouzaréah",
      "state": "Alger",
      "ISO3166-2-lvl4": "DZ-16",
      "postcode": "16138",
      "country": "Algérie ⵍⵣⵣⴰⵢⴻⵔ الجزائر",
      "country_code": "dz"
    }
  },
  {
    "name": "Restaurant universitaire Amirouche",
    "id": 2759395830,
    "lat": 36.7711266,
    "lon": 3.0589492,
    "address": {
      "amenity": "Restaurant universitaire Amirouche",
      "house_number": "10",
      "road": "Boulevard Colonel Amirouche",
      "city": "Alger ⴷⵣⴰⵢⴻⵔ الجزائر",
      "town": "Alger-Centre",
      "county": "Daïra Sidi M'Hamed",
      "state": "Alger",
      "ISO3166-2-lvl4": "DZ-16",
      "postcode": "16007",
      "country": "Algérie ⵍⵣⵣⴰⵢⴻⵔ الجزائر",
      "country_code": "dz"
    }
  },
  {
    "name": "Resto",
    "id": 2763791281,
    "lat": 36.7909209,
    "lon": 3.0593933,
    "address": {
      "amenity": "Resto",
      "road": "Rue Achour Hassan",
      "neighbourhood": "3 Horloges",
      "town": "Bab El Oued ⴱⴰⴱ ⵍⵡⴻⴷ باب الوادي",
      "county": "Daïra Bab El Oued",
      "state": "Alger",
      "ISO3166-2-lvl4": "DZ-16",
      "postcode": "16021",
      "country": "Algérie ⵍⵣⵣⴰⵢⴻⵔ الجزائر",
      "country_code": "dz"
    }
  },
  {
    "name": "Resto",
    "id": 2763844562,
    "lat": 36.7876888,
    "lon": 3.0619025,
    "address": {
      "amenity": "Resto",
      "road": "Rue Bab El Oued",
      "town": "Casbah ⵝⴰⵇⵚⴻⴲⵝ القصبة",
      "city": "القصبة",
      "county": "Daïra Bab El Oued",
      "state": "Alger",
      "ISO3166-2-lvl4": "DZ-16",
      "postcode": "16021",
      "country": "Algérie ⵍⵣⵣⴰⵢⴻⵔ الجزائر",
      "country_code": "dz"
    }
  },
  {
    "name": "Restaurant Sdi Khaled",
    "id": 2763844689,
    "lat": 36.7881938,
    "lon": 3.0621557,
    "address": {
      "amenity": "Restaurant Sdi Khaled",
      "road": "Rue Bouras Mohamed",
      "town": "Casbah ⵝⴰⵇⵚⴻⴲⵝ القصبة",
      "city": "القصبة",
      "county": "Daïra Bab El Oued",
      "state": "Alger",
      "ISO3166-2-lvl4": "DZ-16",
      "postcode": "16021",
      "country": "Algérie ⵍⵣⵣⴰⵢⴻⵔ الجزائر",
      "country_code": "dz"
    }
  },
  {
    "name": "el sahel J's'd",
    "id": 2767339822,
    "lat": 36.7250726,
    "lon": 3.0808646,
    "address": {
      "amenity": "el sahel J's'd",
      "road": "Rue Mohamed Boulouh",
      "quarter": "Vieux Kouba",
      "suburb": "Jolie Vue",
      "village": "Babe el Rahba",
      "city": "Kouba ⵍⵇⵓⴱⴱⴰ القبة",
      "county": "Hussein Dey",
      "state": "Alger",
      "ISO3166-2-lvl4": "DZ-16",
      "postcode": "16308",
      "country": "Algérie ⵍⵣⵣⴰⵢⴻⵔ الجزائر",
      "country_code": "dz"
    }
  },
  {
    "name": "El Baraka",
    "id": 2767339830,
    "lat": 36.7247605,
    "lon": 3.0806728,
    "address": {
      "amenity": "El Baraka",
      "road": "Rue Mohamed Boulouh",
      "quarter": "Vieux Kouba",
      "suburb": "Jolie Vue",
      "village": "Babe el Rahba",
      "city": "Kouba ⵍⵇⵓⴱⴱⴰ القبة",
      "county": "Hussein Dey",
      "state": "Alger",
      "ISO3166-2-lvl4": "DZ-16",
      "postcode": "16308",
      "country": "Algérie ⵍⵣⵣⴰⵢⴻⵔ الجزائر",
      "country_code": "dz"
    }
  },
  {
    "name": "Resto",
    "id": 2781014822,
    "lat": 36.7493833,
    "lon": 3.0056408,
    "address": {
      "amenity": "Resto",
      "road": "Maryama",
      "town": "Hydra ⵃⵉⴷⵔⴰ حيدرة",
      "county": "Bir Mourad Raïs",
      "state": "Alger",
      "ISO3166-2-lvl4": "DZ-16",
      "postcode": "16028",
      "country": "Algérie ⵍⵣⵣⴰⵢⴻⵔ الجزائر",
      "country_code": "dz"
    }
  },
  {
    "name": "Erriane",
    "id": 2793808519,
    "lat": 36.7265919,
    "lon": 3.078084,
    "address": {
      "amenity": "Erriane",
      "road": "Rue Général Nadjaat Slimane",
      "quarter": "Vieux Kouba",
      "suburb": "Jolie Vue",
      "village": "Babe el Rahba",
      "city": "Kouba ⵍⵇⵓⴱⴱⴰ القبة",
      "county": "Hussein Dey",
      "state": "Alger",
      "ISO3166-2-lvl4": "DZ-16",
      "postcode": "16308",
      "country": "Algérie ⵍⵣⵣⴰⵢⴻⵔ الجزائر",
      "country_code": "dz"
    }
  },
  {
    "name": "Restaurant turc",
    "id": 2804843827,
    "lat": 36.7422109,
    "lon": 3.0402928,
    "address": {
      "amenity": "Restaurant turc",
      "road": "Rue du Sahel",
      "suburb": "Centre Ville Hydra",
      "town": "Hydra ⵃⵉⴷⵔⴰ حيدرة",
      "county": "Bir Mourad Raïs",
      "state": "Alger",
      "ISO3166-2-lvl4": "DZ-16",
      "postcode": "16035",
      "country": "Algérie ⵍⵣⵣⴰⵢⴻⵔ الجزائر",
      "country_code": "dz"
    }
  },
  {
    "name": "Resto",
    "id": 2807681536,
    "lat": 36.7328398,
    "lon": 3.0864183,
    "address": {
      "amenity": "Resto",
      "road": "Rue des frères Kessi",
      "allotments": "Jardin aoumar merar",
      "suburb": "Jolie Vue",
      "village": "Babe el Rahba",
      "city": "Kouba ⵍⵇⵓⴱⴱⴰ القبة",
      "county": "Hussein Dey",
      "state": "Alger",
      "ISO3166-2-lvl4": "DZ-16",
      "postcode": "16040",
      "country": "Algérie ⵍⵣⵣⴰⵢⴻⵔ الجزائر",
      "country_code": "dz"
    }
  },
  {
    "name": "Resto",
    "id": 2807681634,
    "lat": 36.7339447,
    "lon": 3.0827007,
    "address": {
      "amenity": "Resto",
      "road": "Pénétrante des Annassers",
      "quarter": "Vieux Kouba",
      "suburb": "Jolie Vue",
      "village": "Babe el Rahba",
      "city": "Kouba ⵍⵇⵓⴱⴱⴰ القبة",
      "county": "Hussein Dey",
      "state": "Alger",
      "ISO3166-2-lvl4": "DZ-16",
      "postcode": "16040",
      "country": "Algérie ⵍⵣⵣⴰⵢⴻⵔ الجزائر",
      "country_code": "dz"
    }
  },
  {
    "name": "Resto",
    "id": 2807681635,
    "lat": 36.7329136,
    "lon": 3.0836513,
    "address": {
      "amenity": "Resto",
      "road": "Rue Mansouri Larbi",
      "allotments": "Jardin aoumar merar",
      "suburb": "Jolie Vue",
      "village": "Babe el Rahba",
      "city": "Kouba ⵍⵇⵓⴱⴱⴰ القبة",
      "county": "Hussein Dey",
      "state": "Alger",
      "ISO3166-2-lvl4": "DZ-16",
      "postcode": "16040",
      "country": "Algérie ⵍⵣⵣⴰⵢⴻⵔ الجزائر",
      "country_code": "dz"
    }
  },
  {
    "name": "Citadelle",
    "id": 2816973272,
    "lat": 36.1903033,
    "lon": 5.3847898,
    "address": {
      "amenity": "Citadelle",
      "road": "Voie Rapide Setif - Bordj Bou Arreridj",
      "neighbourhood": "Cité 42 logements",
      "city": "Sétif سطيف",
      "county": "Daïra Sétif",
      "state": "Sétif",
      "ISO3166-2-lvl4": "DZ-19",
      "postcode": "19000",
      "country": "Algérie ⵍⵣⵣⴰⵢⴻⵔ الجزائر",
      "country_code": "dz"
    }
  },
  {
    "name": "Resto",
    "id": 2818269787,
    "lat": 36.1888566,
    "lon": 5.4226611,
    "address": {
      "amenity": "Resto",
      "road": "Avenue du 1er Novembre",
      "city": "Sétif سطيف",
      "county": "Daïra Sétif",
      "state": "Sétif",
      "ISO3166-2-lvl4": "DZ-19",
      "postcode": "19000",
      "country": "Algérie ⵍⵣⵣⴰⵢⴻⵔ الجزائر",
      "country_code": "dz"
    }
  },
  {
    "name": "Resto",
    "id": 2826141207,
    "lat": 36.7513381,
    "lon": 3.0282124,
    "address": {
      "amenity": "Resto",
      "road": "Rue C",
      "residential": "Djenane El Malik",
      "hamlet": "Résidence Petit Hydra",
      "town": "Hydra ⵃⵉⴷⵔⴰ حيدرة",
      "county": "Bir Mourad Raïs",
      "state": "Alger",
      "ISO3166-2-lvl4": "DZ-16",
      "postcode": "16070",
      "country": "Algérie ⵍⵣⵣⴰⵢⴻⵔ الجزائر",
      "country_code": "dz"
    }
  },
  {
    "name": "Resto",
    "id": 2827994047,
    "lat": 36.8234581,
    "lon": 5.7668047,
    "address": {
      "amenity": "Resto",
      "road": "شارع العربي بن مهيدي",
      "neighbourhood": "Le Faubourg",
      "city": "Jijel جيجل",
      "county": "Daïra Jijel",
      "state": "Jijel",
      "ISO3166-2-lvl4": "DZ-18",
      "postcode": "18000",
      "country": "Algérie ⵍⵣⵣⴰⵢⴻⵔ الجزائر",
      "country_code": "dz"
    }
  },
  {
    "name": "Resto",
    "id": 2839478135,
    "lat": 36.7605551,
    "lon": 3.0423773,
    "address": {
      "amenity": "Resto",
      "road": "Avenue Colonel Ahmed Bougara",
      "town": "El Biar ⵍⴻⴱⵢⴰⵔ الأبيار",
      "county": "Bouzaréah",
      "state": "Alger",
      "ISO3166-2-lvl4": "DZ-16",
      "postcode": "16025",
      "country": "Algérie ⵍⵣⵣⴰⵢⴻⵔ الجزائر",
      "country_code": "dz"
    }
  },
  {
    "name": "Resto",
    "id": 2856152668,
    "lat": 36.447881,
    "lon": 4.1279075,
    "address": {
      "amenity": "Resto",
      "road": "RN 33",
      "town": "El Asnam",
      "county": "Daïra Bechloul",
      "state": "Bouira",
      "ISO3166-2-lvl4": "DZ-10",
      "postcode": "15015",
      "country": "Algérie ⵍⵣⵣⴰⵢⴻⵔ الجزائر",
      "country_code": "dz"
    }
  },
  {
    "name": "Al Firdaous",
    "id": 2865121451,
    "lat": 34.908365,
    "lon": -1.3213343,
    "address": {
      "amenity": "Al Firdaous",
      "road": "Boulevard Allem Mouloud",
      "neighbourhood": "Cité des Oliviers",
      "suburb": "Abou Tachfine",
      "city": "Tlemcen",
      "county": "Daïra Tlemcen",
      "state": "Tlemcen ⵜⵍⴻⵎⵙⴻⵏ تلمسان",
      "ISO3166-2-lvl4": "DZ-13",
      "postcode": "13000",
      "country": "Algérie ⵍⵣⵣⴰⵢⴻⵔ الجزائر",
      "country_code": "dz"
    }
  },
  {
    "name": "مهراجا مطعم هندي",
    "id": 2872417304,
    "lat": 36.1936398,
    "lon": 5.4014284,
    "address": {
      "amenity": "مهراجا مطعم هندي",
      "road": "Rue Ahmed Daamouche",
      "residential": "Cité Belkhired Hacen",
      "village": "Cité Boussekine",
      "city": "Sétif سطيف",
      "county": "Daïra Sétif",
      "state": "Sétif",
      "ISO3166-2-lvl4": "DZ-19",
      "postcode": "19000",
      "country": "Algérie ⵍⵣⵣⴰⵢⴻⵔ الجزائر",
      "country_code": "dz"
    }
  },
  {
    "name": "Coin de Damas",
    "id": 2878003452,
    "lat": 36.7430496,
    "lon": 2.9474929,
    "address": {
      "amenity": "Coin de Damas",
      "road": "CW 142",
      "residential": "Cité Oulami Ahmed (AADL 1530 lgts)",
      "town": "Ouled Fayet ⵓⵍⴻⴷ ⴼⴰⵢⴻⵜ أولاد فايت",
      "county": "Daïra de Chéraga",
      "state": "Alger",
      "ISO3166-2-lvl4": "DZ-16",
      "postcode": "16094",
      "country": "Algérie ⵍⵣⵣⴰⵢⴻⵔ الجزائر",
      "country_code": "dz"
    }
  },
  {
    "name": "Resto",
    "id": 2880508880,
    "lat": 36.4819474,
    "lon": 2.8366463,
    "address": {
      "amenity": "Resto",
      "road": "Avenue Kritli Mokhtar",
      "neighbourhood": "Bab Dzair",
      "suburb": "Cité les Palmiers",
      "city": "Blida ⵍⴻⴱⵍⵉⴸⴰ البليدة",
      "county": "Daïra Blida",
      "state": "Blida",
      "ISO3166-2-lvl4": "DZ-09",
      "postcode": "09000",
      "country": "Algérie ⵍⵣⵣⴰⵢⴻⵔ الجزائر",
      "country_code": "dz"
    }
  },
  {
    "name": "Resto",
    "id": 2914563324,
    "lat": 32.8261737,
    "lon": 3.7635496,
    "address": {
      "amenity": "Resto",
      "road": "Trans-Sahara",
      "town": "Berriane ⴱⴻⵔⵔⵉⵢⴰⵏ بريان",
      "county": "Daïra Berriane",
      "state": "Ghardaïa",
      "ISO3166-2-lvl4": "DZ-47",
      "country": "Algérie ⵍⵣⵣⴰⵢⴻⵔ الجزائر",
      "country_code": "dz"
    }
  },
  {
    "name": "Resto",
    "id": 2927574399,
    "lat": 35.9140267,
    "lon": 3.7638177,
    "address": {
      "amenity": "Resto",
      "road": "CW 13",
      "town": "Sidi Aïssa ⵙⵉⴷⵉ ⵄⵉⵙⴰ سيدي عيسى",
      "county": "Daïra Sour El Ghozlane",
      "state": "Bouira",
      "ISO3166-2-lvl4": "DZ-10",
      "postcode": "28300",
      "country": "Algérie ⵍⵣⵣⴰⵢⴻⵔ الجزائر",
      "country_code": "dz"
    }
  },
  {
    "name": "Resto",
    "id": 2932589267,
    "lat": 36.7421383,
    "lon": 3.2810874,
    "address": {
      "amenity": "Resto",
      "road": "Rue Palestine",
      "town": "Rouiba ⵔⵡⵉⴱⴰ الرويبة",
      "county": "Rouiba",
      "state": "Alger",
      "ISO3166-2-lvl4": "DZ-16",
      "postcode": "16012",
      "country": "Algérie ⵍⵣⵣⴰⵢⴻⵔ الجزائر",
      "country_code": "dz"
    }
  },
  {
    "name": "Pizzeria",
    "id": 2940343882,
    "lat": 36.7620586,
    "lon": 2.9265847,
    "address": {
      "amenity": "Pizzeria",
      "road": "Route des Dunes",
      "town": "El Karia",
      "county": "Daïra de Chéraga",
      "state": "Alger",
      "ISO3166-2-lvl4": "DZ-16",
      "postcode": "16084",
      "country": "Algérie ⵍⵣⵣⴰⵢⴻⵔ الجزائر",
      "country_code": "dz"
    }
  },
  {
    "name": "Poisson Tipaza",
    "id": 2940393676,
    "lat": 36.5929586,
    "lon": 2.4502282,
    "address": {
      "amenity": "Poisson Tipaza",
      "road": "Accès au Port",
      "quarter": "Cité Administrative الحي الإداري",
      "suburb": "Cité 40 Logements",
      "town": "Tipaza تيبازة",
      "county": "Daïra Tipaza",
      "state": "Tipaza",
      "ISO3166-2-lvl4": "DZ-42",
      "postcode": "42000",
      "country": "Algérie ⵍⵣⵣⴰⵢⴻⵔ الجزائر",
      "country_code": "dz"
    }
  },
  {
    "name": "Resto",
    "id": 2944813131,
    "lat": 36.7154235,
    "lon": 3.197642,
    "address": {
      "amenity": "Resto",
      "road": "حي 1200 مسكن",
      "suburb": "Cité 324 lgts",
      "town": "Bab Ezzouar ⴱⴰⴱ ⵣⵡⴰⵔ باب الزوار",
      "city": "Bab Ezzouar ⴱⴰⴱ ⵣⵡⴰⵔ باب الزوار",
      "county": "Dar el-Beïda",
      "state": "Alger",
      "ISO3166-2-lvl4": "DZ-16",
      "postcode": "16311",
      "country": "Algérie ⵍⵣⵣⴰⵢⴻⵔ الجزائر",
      "country_code": "dz"
    }
  },
  {
    "name": "entrecote",
    "id": 2944813132,
    "lat": 36.7376461,
    "lon": 3.0284935,
    "address": {
      "amenity": "entrecote",
      "road": "CW 116",
      "suburb": "Said Hamdine",
      "town": "Bir Mourad Raïs ⴱⵉⵔ ⵎⵓⵔⴰⴷ ⵔⴰⵢⵙ بئر مراد رايس",
      "county": "Bir Mourad Raïs",
      "state": "Alger",
      "ISO3166-2-lvl4": "DZ-16",
      "postcode": "16405",
      "country": "Algérie ⵍⵣⵣⴰⵢⴻⵔ الجزائر",
      "country_code": "dz"
    }
  },
  {
    "name": "نورماندي بيتش",
    "id": 2952897266,
    "lat": 36.7433686,
    "lon": 2.8463141,
    "address": {
      "amenity": "نورماندي بيتش",
      "suburb": "شاطئ النخيل",
      "town": "Staoueli ⵙⵜⴰⵡⴰⵍⵉ سطاوالي",
      "county": "Zeralda ⵣⵉⵔⴰⵍⴷⴰ زرالدة",
      "state": "Alger",
      "ISO3166-2-lvl4": "DZ-16",
      "postcode": "16063",
      "country": "Algérie ⵍⵣⵣⴰⵢⴻⵔ الجزائر",
      "country_code": "dz"
    }
  },